Report Number,Report Date,Occur Date,Occur Time,Possible Date,Possible Time,Beat,Apartment Office Prefix,Apartment Number,Location,Shift Occurrence,Location Type,UCR Literal,UCR #,IBR Code,Neighborhood,NPU,Latitude,Longitude
200010442,2020-01-01,2020-01-01,0215,2020-01-01,0220,206,,,3182 ROSWELL RD NW,Morning Watch,3,LARCENY-NON VEHICLE,0610,2301,South Tuxedo Park,B,33.842149999999997,-84.379679999999993
200010276,2020-01-01,2019-12-31,1929,2020-01-01,0100,507,,,360 MARIETTA ST NW @MBS LOT G,Evening Watch,18,LARCENY-FROM VEHICLE,0640,2305,Downtown,M,33.762689999999999,-84.397019999999998
200010320,2020-01-01,2019-12-31,1900,2020-01-01,0115,511,,,46 WALL ST SE,Evening Watch,18,LARCENY-FROM VEHICLE,0640,2305,Downtown,M,33.753120000000003,-84.388760000000005
200010343,2020-01-01,2019-12-31,2045,2020-01-01,0130,211,,,2285 PEACHTREE RD NE,Unknown,18,LARCENY-FROM VEHICLE,0640,2305,,E,33.816369999999999,-84.389539999999997
200010404,2020-01-01,2019-12-31,1730,2020-01-01,0200,603,,,650 NORTH AVE NE,Evening Watch,18,LARCENY-FROM VEHICLE,0640,2305,Old Fourth Ward,M,33.771210000000004,-84.364779999999996
200010521,2020-01-01,2019-12-31,2300,2020-01-01,0200,507,,,229 WALKER ST SW,Morning Watch,18,LARCENY-FROM VEHICLE,0640,2305,Castleberry Hill,M,33.748510000000003,-84.402810000000002
200010645,2020-01-01,2020-01-01,0100,2020-01-01,0409,506,,,852 PROCTOR ST NW,Morning Watch,13,LARCENY-FROM VEHICLE,0640,2305,English Avenue,L,33.76482,-84.415300000000002
200010843,2020-01-01,2019-12-31,2300,2020-01-01,0803,501,,,990 BRADY AVE NW,Day Watch,18,LARCENY-FROM VEHICLE,0640,2305,Home Park,E,33.782249999999998,-84.413910000000001
200010889,2020-01-01,2019-12-24,1800,2019-12-27,0900,602,,,1094 ALTA AVE NE,Day Watch,20,LARCENY-FROM VEHICLE,0640,2305,Inman Park,N,33.761139999999997,-84.351929999999996
200010927,2020-01-01,2020-01-01,0903,2020-01-01,0956,107,,,568 CHAPPELL RD NW,Day Watch,23,LARCENY-FROM VEHICLE,0640,2305,Grove Park,J,33.77075,-84.434070000000006
200010941,2020-01-01,2019-12-31,1900,2020-01-01,1011,304,,,56 ORMOND ST SW,Day Watch,13,LARCENY-FROM VEHICLE,0640,2305,Peoplestown,V,33.731580000000001,-84.389750000000006
200010947,2020-01-01,2019-12-31,1900,2020-01-01,0900,613,,,1346 AVALON PL NE,Day Watch,20,LARCENY-FROM VEHICLE,0640,2305,Morningside/Lenox Park,F,33.791359999999997,-84.352010000000007
200011105,2020-01-01,2019-12-31,0615,2020-01-01,1220,206,,,3005 PEACHTREE RD NE,Day Watch,,LARCENY-FROM VEHICLE,0640,2305,Garden Hills,B,33.836829999999999,-84.381169999999997
200011223,2020-01-01,2020-01-01,1150,2020-01-01,1330,602,,,465 N HIGHLAND AVE NE,Day Watch,21,LARCENY-FROM VEHICLE,0640,2305,Inman Park,N,33.766800000000003,-84.352800000000002
200011262,2020-01-01,2020-01-01,0000,2020-01-01,0400,111,,,3455 MARTIN L KING JR DR NW,Evening Watch,18,LARCENY-FROM VEHICLE,0640,2305,Adamsville,H,33.756430000000002,-84.500600000000006
200011336,2020-01-01,2019-12-31,1700,2020-01-01,1517,607,,,1089 EDEN AVE SE,Evening Watch,,LARCENY-FROM VEHICLE,0640,2305,Ormewood Park,W,33.729900000000001,-84.352059999999994
200011678,2020-01-01,2019-01-01,1800,2019-01-01,1850,607,,,1006 CUSTER AVE SE,Evening Watch,13,LARCENY-FROM VEHICLE,0640,2305,Custer/McDonough/Guice,W,33.717199999999998,-84.355779999999996
200011768,2020-01-01,2020-01-01,1900,2020-01-01,1954,612,,,560 GRESHAM AVE SE,Evening Watch,13,LARCENY-FROM VEHICLE,0640,2305,East Atlanta,W,33.739420000000003,-84.345640000000003
200011783,2020-01-01,2020-01-01,2001,2020-01-01,2010,206,,,345 PHARR RD ,Evening Watch,,LARCENY-FROM VEHICLE,0640,2305,Garden Hills,B,33.836669999999998,-84.376660000000001
200011806,2020-01-01,2019-12-31,2320,2020-01-01,2000,207,,,1700 NORTHSIDE DR NW,Evening Watch,18,LARCENY-FROM VEHICLE,0640,2305,Berkeley Park,D,33.80077,-84.408690000000007
200011808,2020-01-01,2020-01-01,1940,2020-01-01,2000,209,,,3802 ROSWELL RD NE,Evening Watch,18,LARCENY-FROM VEHICLE,0640,2305,East Chastain Park,B,33.858649999999997,-84.381020000000007
200011826,2020-01-01,2020-01-01,1850,2020-01-01,2020,503,,,1125 PEACHTREE ST,Evening Watch,18,LARCENY-FROM VEHICLE,0640,2305,Midtown,E,33.785150000000002,-84.382670000000005
200011829,2020-01-01,2020-01-01,1330,2020-01-01,1930,501,,,420 14TH ST NW,Evening Watch,18,LARCENY-FROM VEHICLE,0640,2305,Home Park,E,33.78593,-84.400859999999994
200011844,2020-01-01,2020-01-01,1800,2020-01-01,2030,206,,,250 PHARR RD NE,Evening Watch,,LARCENY-FROM VEHICLE,0640,2305,Buckhead Village,B,33.837319999999998,-84.378600000000006
200011569,2020-01-01,2020-01-01,0100,2020-01-01,0600,207,,,2143 PEACHTREE RD NE,Morning Watch,18,LARCENY-FROM VEHICLE,0640,2305,,E,33.812620000000003,-84.391949999999994
200011628,2020-01-01,2020-01-01,1800,2020-01-01,1830,101,,,844 MARTIN L KING JR DR SW,Evening Watch,13,LARCENY-FROM VEHICLE,0640,2305,Atlanta University Center,T,33.75461,-84.415549999999996
200011928,2020-01-01,2020-01-01,0800,2020-01-01,2150,508,,,305 TED TURNER DR NW,Day Watch,18,LARCENY-FROM VEHICLE,0640,2305,Downtown,M,33.762839999999997,-84.388900000000007
200011970,2020-01-01,2020-01-01,2000,2020-01-01,2200,604,,,659 AUBURN AVE NE,Morning Watch,99,LARCENY-FROM VEHICLE,0640,2305,Old Fourth Ward,M,33.757570000000001,-84.365629999999996
200012000,2020-01-01,2020-01-01,2100,2020-01-01,2130,211,,312,2400 PARKLAND DR NE,Morning Watch,18,LARCENY-FROM VEHICLE,0640,2305,Lindbergh/Morosgo,B,33.82,-84.365099999999998
200012040,2020-01-01,2020-01-01,2100,2020-01-01,2300,507,,,327 PETERS ST SW,Evening Watch,18,LARCENY-FROM VEHICLE,0640,2305,Castleberry Hill,M,33.74586,-84.403819999999996
200012063,2020-01-01,2020-01-01,2012,2020-01-01,2320,503,,,1080 W PEACHTREE ST NW,Evening Watch,18,LARCENY-FROM VEHICLE,0640,2305,Midtown,E,33.784700000000001,-84.388170000000002
200012092,2020-01-01,2020-01-01,1300,2020-01-02,2338,508,,,275 BAKER ST NW,Day Watch,18,LARCENY-FROM VEHICLE,0640,2305,Downtown,M,33.762059999999998,-84.395679999999999
200010541,2020-01-01,2020-01-01,0243,2020-01-01,1436,408,,,1722 CAMPBELLTON RD SW,Morning Watch,23,LARCENY-NON VEHICLE,0630,2303,,R,33.711069999999999,-84.444109999999995
200010993,2020-01-01,2020-01-01,1000,2020-01-01,1045,609,,,1275 CAROLINE ST NE @TARGET - CAROLINE,Day Watch,24,LARCENY-NON VEHICLE,0630,2303,Edgewood,O,33.756740000000001,-84.346190000000007
200011221,2020-01-01,2020-01-01,1345,2020-01-01,1355,102,,,835 MARTIN L KING JR DR,Day Watch,8,LARCENY-NON VEHICLE,0630,2303,Vine City,L,33.755040000000001,-84.414569999999998
200011454,2020-01-01,2020-01-01,1600,2020-01-01,1630,309,,,2461 METROPOLITAN PKWY SW,Evening Watch,23,LARCENY-NON VEHICLE,0630,2303,Perkerson,X,33.687829999999998,-84.408879999999996
200011550,2020-01-01,2020-01-01,1659,2020-01-01,1712,208,,,3500 PEACHTREE RD NE @SAKS FIFTH AVENUE,Evening Watch,8,LARCENY-NON VEHICLE,0630,2303,North Buckhead,B,33.853020000000001,-84.362780000000001
200011742,2020-01-01,2020-01-01,2006,2020-01-01,2020,107,,,2045 DONALD LEE HOLLOWELL PKWY NW,Evening Watch,8,LARCENY-NON VEHICLE,0630,2303,Grove Park,J,33.7774,-84.45214
193651281,2020-01-01,2019-12-26,1200,2019-12-31,1530,505,,,144 PONCE DE LEON AVE,Evening Watch,26,LARCENY-FROM VEHICLE,0650,2304,Midtown,E,33.772550000000003,-84.382490000000004
200011382,2020-01-01,2019-07-21,1500,2019-07-21,1500,210,,,3147 W ROXBORO RD NE,Evening Watch,20,LARCENY-NON VEHICLE,0670,2308,Pine Hills,B,33.840809999999998,-84.350059999999999
200011658,2020-01-01,2020-01-01,1800,2020-01-01,1837,509,,,231 PEACHTREE ST NE,Evening Watch,21,LARCENY-NON VEHICLE,0670,2308,Downtown,M,33.760449999999999,-84.387460000000004
200011497,2020-01-01,2019-09-13,1500,2019-12-18,0830,502,,302,1240 W PEACHTREE ST NW,Evening Watch,18,LARCENY-NON VEHICLE,0660,2317,Midtown,E,33.787999999999997,-84.387900000000002
200011853,2020-01-01,2020-01-01,2035,2020-01-01,2035,208,,,3365 PIEDMONT RD NE,Evening Watch,18,LARCENY-NON VEHICLE,0690,2399,North Buckhead,B,33.846870000000003,-84.372839999999997
200010243,2020-01-01,2019-12-31,2100,2020-01-01,0100,304,APT,15,954 WASHINGTON ST SW,Morning Watch,18,AUTO THEFT,0710,2404,Peoplestown,V,33.729019999999998,-84.39085
200010520,2020-01-01,2020-01-01,0230,2020-01-01,0240,512,,,210 PRYOR ST SW,Morning Watch,13,AUTO THEFT,0710,2404,Downtown,M,33.748860000000001,-84.392830000000004
200011082,2020-01-01,2020-01-01,0300,2020-01-01,1030,512,,,250 TRINITY AVE SW,Day Watch,18,AUTO THEFT,0710,2404,Downtown,M,33.75029,-84.395970000000005
200011124,2020-01-01,2020-01-01,0400,2020-01-01,0530,604,,,433 HIGHLAND AVE NE,Day Watch,20,AUTO THEFT,0710,2404,Old Fourth Ward,M,33.761009999999999,-84.373450000000005
200011128,2020-01-01,2020-01-01,0800,2020-01-01,1234,501,,,361 17TH ST NW,Day Watch,18,AUTO THEFT,0710,2404,Atlantic Station,E,33.791609999999999,-84.398099999999999
200011298,2020-01-01,2020-01-01,1445,2020-01-01,1520,405,,,2630 MARTIN L KING JR DR SW,Evening Watch,24,AUTO THEFT,0710,2404,Harland Terrace,I,33.753770000000003,-84.474050000000005
200011823,2020-01-01,2020-01-01,2000,2020-01-01,2023,303,,2020,540 HUMPHRIES ST SW,Evening Watch,23,AUTO THEFT,0710,2404,Mechanicsville,V,33.739899999999999,-84.404880000000006
200011581,2020-01-01,2019-12-16,1200,2020-01-01,1755,204,,C15,1150 COLLIER RD NW,Evening Watch,18,AUTO THEFT,0730,2434,Underwood Hills,D,33.811190000000003,-84.424899999999994
200011773,2020-01-01,2020-01-01,1950,2020-01-01,1956,206,,,3004 PIEDMONT RD,Evening Watch,23,ROBBERY-PEDESTRIAN,0341,1206,Garden Hills,B,33.836649999999999,-84.368380000000002
200011413,2020-01-01,2020-01-01,0245,2020-01-01,0300,312,,,3548 EMPIRE BLVD SW,Evening Watch,3,LARCENY-NON VEHICLE,0690,2399,Glenrose Heights,Z,33.657559999999997,-84.390940000000001
200010590,2020-01-01,2020-01-01,0332,2020-01-01,0348,612,,,886 BOULDERCREST DR SE,Morning Watch,18,ROBBERY-PEDESTRIAN,0311,1204,East Atlanta,W,33.730350000000001,-84.335610000000003
200011603,2020-01-01,2020-01-01,1800,2020-01-01,1809,411,,,2841 GREENBRIAR PKWY SW @GREENBRIAR MALL,Evening Watch,18,ROBBERY-PEDESTRIAN,0311,1204,Greenbriar,R,33.688450000000003,-84.493279999999999
200010724,2020-01-01,2020-01-01,0230,2020-01-01,0330,111,,,3018 MIDDLETON RD NW,Day Watch,18,AGG ASSAULT,0410,1314,,I,33.752789999999997,-84.48845
200010628,2020-01-01,2020-01-01,0330,2020-01-01,0358,607,,,840 MCDONOUGH BLVD SE,Morning Watch,26,AGG ASSAULT,0420,1315K,Custer/McDonough/Guice,W,33.709789999999998,-84.358490000000003
200010736,2020-01-01,2019-12-31,1145,2020-01-01,0530,411,,F155,3000 CONTINENTAL COLONY PKWY SW,Morning Watch,18,AGG ASSAULT,0420,1315K,Greenbriar,R,33.680770000000003,-84.493700000000004
200011069,2020-01-01,2020-01-01,1140,2020-01-01,1145,405,,8108,2640 MARTIN LUTHER KING JR DRIVE SW,Day Watch,20,AGG ASSAULT,0420,1315K,Harland Terrace,I,33.753810000000001,-84.474249999999998
200011888,2020-01-01,2020-01-01,2103,2020-01-01,2110,408,,R3,1631 STANTON RD SW,Evening Watch,26,AGG ASSAULT,0420,1315K,,R,33.710760000000001,-84.443799999999996
200010628,2020-01-01,2020-01-01,0330,2020-01-01,0358,607,,,840 MCDONOUGH BLVD SE,Morning Watch,26,AGG ASSAULT,0430,1315,Custer/McDonough/Guice,W,33.709789999999998,-84.358490000000003
200011517,2020-01-01,2020-01-01,1700,2020-01-01,1706,312,,,130 MOUNT ZION RD SE,Evening Watch,20,AGG ASSAULT,0430,1315,Glenrose Heights,Z,33.67286,-84.385080000000002
200011924,2020-01-01,2020-01-01,2115,2020-01-01,2130,210,,,3535 PEACHTREE RD NE @TARGET - PEACHTREE,Evening Watch,18,AGG ASSAULT,0430,1315,Lenox,B,33.851819999999996,-84.359499999999997
200010295,2020-01-01,2020-01-01,0130,2020-01-01,0155,206,APT,5,115 RUMSON RD NE,Morning Watch,26,AGG ASSAULT,0440,1399,Garden Hills,B,33.831069999999997,-84.384050000000002
200011406,2020-01-01,2019-12-26,2359,2019-12-27,2359,205,,1321,214 COLONIAL HOMES DR NW,Unknown,26,BURGLARY-RESIDENCE,0511,2202,Colonial Homes,C,33.813920000000003,-84.394589999999994
200011450,2020-01-01,2019-11-28,0000,2020-01-01,1500,613,,1443,1989 CHESHIRE BRIDGE RD NE,Evening Watch,26,BURGLARY-RESIDENCE,0511,2202,Morningside/Lenox Park,F,33.81073,-84.358059999999995
200011720,2020-01-01,2019-12-21,0800,2020-01-01,1800,205,,2402,214 COLONIAL HOMES DR NW,Evening Watch,26,BURGLARY-RESIDENCE,0511,2202,Colonial Homes,C,33.813920000000003,-84.394589999999994
200011571,2020-01-01,2020-01-01,1230,2020-01-01,1740,606,,1105,390 STOVALL ST SE,Day Watch,26,BURGLARY-RESIDENCE,0521,2204,Ormewood Park,W,33.743600000000001,-84.354290000000006
200012043,2020-01-01,2020-01-01,2300,2020-01-01,2318,204,,,1766 HOWELL MILL RD NW,Morning Watch,24,BURGLARY-NONRES,0512,2203,Underwood Hills,D,33.802430000000001,-84.415289999999999
200011442,2020-01-01,2019-12-31,1700,2020-01-01,1620,411,,,3200 STONE RD SW @WINDJAMMER APTS,Unknown,26,BURGLARY-NONRES,0522,2205,Greenbriar,R,33.669449999999998,-84.494150000000005
200010505,2020-01-01,2020-01-01,0240,2020-01-01,0257,505,,3108,850 PIEDMONT AVE NE,Morning Watch,26,BURGLARY-RESIDENCE,0531,2202A,Midtown,E,33.77778,-84.381370000000004
200020493,2020-01-02,2020-01-01,1300,2020-01-02,0829,604,,,444 HIGHLAND AVE NE,Day Watch,99,BURGLARY-NONRES,0512,2203,Old Fourth Ward,M,33.761450000000004,-84.372900000000001
200020684,2020-01-02,2020-01-02,0239,2020-01-02,0244,604,,,349 DECATUR ST SE,Day Watch,21,BURGLARY-NONRES,0512,2203,Sweet Auburn,M,33.749929999999999,-84.37706
200021768,2020-01-02,2019-12-26,1400,2020-01-02,1900,202,,,1400 CAVE RD NW,Evening Watch,20,BURGLARY-RESIDENCE,0521,2204,Mt. Paran/Northside,A,33.860250000000001,-84.434250000000006
200020832,2020-01-02,2019-12-31,1500,2020-01-02,1130,401,,,1003 WHITE ST SW,Evening Watch,,BURGLARY-RESIDENCE,0511,2202,West End,T,33.732309999999998,-84.42071
200020938,2020-01-02,2019-09-15,2000,2019-12-31,1700,403,,,1129 GRAYMONT DR SW,Morning Watch,20,BURGLARY-RESIDENCE,0511,2202,Oakland City,S,33.724409999999999,-84.43674
200020940,2020-01-02,2019-12-31,2300,2020-01-02,1120,406,,,2401 EDGEWATER DR SW,Evening Watch,20,BURGLARY-RESIDENCE,0511,2202,Beecher Hills,I,33.732460000000003,-84.464619999999996
200021334,2020-01-02,2019-12-24,0000,2020-01-02,1600,606,,650,777 MEMORIAL DR SE,Evening Watch,20,BURGLARY-RESIDENCE,0511,2202,Reynoldstown,N,33.746540000000003,-84.361360000000005
200021664,2020-01-02,2020-01-02,1820,2020-01-02,1824,411,,,3030 HEADLAND DR SW,Evening Watch,18,AGG ASSAULT,0430,1315,Greenbriar,R,33.688409999999998,-84.48742
200020718,2020-01-02,2019-12-05,0800,2020-01-02,1038,305,,14,262 ARTHUR LANGFORD JR PL,Day Watch,26,AGG ASSAULT,0410,1314,Joyland,Y,33.714120000000001,-84.397530000000003
200021209,2020-01-02,2020-01-02,1521,2020-01-02,1535,511,,,12 BROAD ST SW,Evening Watch,21,HOMICIDE,0110,0911,Downtown,M,33.753520000000002,-84.391890000000004
200020105,2020-01-02,2020-01-01,2145,2020-01-02,0030,602,,,1174 EUCLID AVE NE,Morning Watch,18,AUTO THEFT,0710,2404,Inman Park,N,33.765529999999998,-84.349339999999998
200020649,2020-01-02,2019-12-27,1800,2019-12-29,2208,207,,,1590 HOWELL MILL RD NW,Morning Watch,23,AUTO THEFT,0710,2404,Berkeley Park,D,33.798310000000001,-84.416200000000003
200020704,2020-01-02,2020-01-01,2000,2020-01-02,0900,604,,F,383 RALPH MCGILL BLVD NE,Day Watch,20,AUTO THEFT,0710,2404,Old Fourth Ward,M,33.763910000000003,-84.374889999999994
200021204,2020-01-02,2019-12-29,2000,2019-12-30,1500,606,,,777 MEMORIAL DR SE,Evening Watch,26,AUTO THEFT,0710,2404,Reynoldstown,N,33.746290000000002,-84.360370000000003
200021684,2020-01-02,2020-01-02,1821,2020-01-02,1831,209,,,3655 ROSWELL RD NE,Evening Watch,18,AUTO THEFT,0710,2404,North Buckhead,B,33.855469999999997,-84.381349999999998
200021716,2020-01-02,2019-12-26,1500,2020-01-02,1600,210,,301,3777 PEACHTREE RD NE,Evening Watch,18,AUTO THEFT,0710,2404,Ridgedale Park,B,33.857120000000002,-84.3489
200021999,2020-01-02,2020-01-02,2105,2020-01-02,2106,303,,,180 RALPH D ABERNATHY BLVD SW,Evening Watch,23,AUTO THEFT,0710,2404,Mechanicsville,V,33.736559999999997,-84.39376
200020778,2020-01-02,2019-12-27,1000,2020-01-02,1100,609,,,1234 COLMER AVE SE,Day Watch,20,LARCENY-NON VEHICLE,0690,2316,Edgewood,O,33.751280000000001,-84.347200000000001
200020782,2020-01-02,2019-12-31,1400,2020-01-02,1000,412,,,2100 SOUTHWOOD BLVD SW,Evening Watch,26,LARCENY-NON VEHICLE,0690,2399,Ben Hill Terrace,P,33.695749999999997,-84.518860000000004
200020908,2020-01-02,2019-12-28,0430,2019-12-28,0720,308,C,,2500 FORREST PARK RD SE,Day Watch,5,LARCENY-NON VEHICLE,0690,2399,Rebel Valley Forest,Z,33.685490000000001,-84.359579999999994
200020357,2020-01-02,2020-01-02,0550,2020-01-02,0605,407,,,3734 MARTIN L KING JR DR SW,Morning Watch,99,LARCENY-NON VEHICLE,0670,2308,Adamsville,H,33.764940000000003,-84.510810000000006
200020802,2020-01-02,2019-12-31,2300,2020-01-01,0200,211,,4213,2323 PIEDMONT RD NE,Morning Watch,26,LARCENY-NON VEHICLE,0670,2308,Lindbergh/Morosgo,B,33.818689999999997,-84.366219999999998
200021144,2020-01-02,2019-12-19,0000,2019-12-28,0000,205,,1061,1950 HOWELL MILL RD NW,Evening Watch,26,LARCENY-NON VEHICLE,0670,2308,Wildwood (NPU-C),C,33.808050000000001,-84.412819999999996
200021274,2020-01-02,2020-01-01,1600,2020-01-01,1830,212,,1310,2470 CHESHIRE BRIDGE RD NE,Evening Watch,26,LARCENY-NON VEHICLE,0670,2308,Lindridge/Martin Manor,F,33.822360000000003,-84.351730000000003
200021333,2020-01-02,2020-01-02,1430,2020-01-02,1600,401,,,854 OAK ST SW ,Evening Watch,24,LARCENY-NON VEHICLE,0670,2308,West End,T,33.74053,-84.416709999999995
200021337,2020-01-02,2020-01-02,0900,2020-01-02,1620,114,,12-I,3804 MARTIN L KING JR DR SW,Evening Watch,26,LARCENY-NON VEHICLE,0670,2308,Old Gordon,H,33.767969999999998,-84.513220000000004
200021980,2020-01-02,2020-01-02,1900,2020-01-02,2000,505,,,715 PEACHTREE ST NE,Evening Watch,18,LARCENY-NON VEHICLE,0670,2308,Midtown,E,33.774000000000001,-84.384119999999996
200022069,2020-01-02,2020-01-02,1800,2020-01-02,2050,210,,,3393 PEACHTREE RD NE @LENOX SQUARE,Morning Watch,8,LARCENY-NON VEHICLE,0670,2308,Lenox,B,33.846760000000003,-84.362120000000004
200020836,2020-01-02,2019-01-02,0915,2019-01-02,1130,510,,,210 AUBURN AVE NE ,Day Watch,18,LARCENY-FROM VEHICLE,0650,2304,Downtown,M,33.755629999999996,-84.380920000000003
200021078,2020-01-02,2020-01-02,0730,2020-01-02,1400,414,,,3700 PRINCETON LAKES PKWY SW,Day Watch,14,LARCENY-FROM VEHICLE,0650,2304,Princeton Lakes,P,33.659590000000001,-84.50949
200021291,2020-01-02,2020-01-01,1800,2020-01-02,0900,612,,,1325 MCPHERSON AVE SE,Evening Watch,13,LARCENY-FROM VEHICLE,0650,2304,East Atlanta,W,33.744250000000001,-84.344200000000001
200021454,2020-01-02,2020-01-02,1030,2020-01-02,1700,414,,5108,3725 PRINCETON LAKES PKWY SW,Day Watch,26,LARCENY-FROM VEHICLE,0650,2304,Princeton Lakes,P,33.657769999999999,-84.508769999999998
200020221,2020-01-02,2020-01-02,0200,2020-01-02,0225,111,,,3657 MARTIN L KING JR DR NW,Morning Watch,12,LARCENY-NON VEHICLE,0630,2303,Adamsville,H,33.762079999999997,-84.507599999999996
200020183,2020-01-02,2020-01-01,2038,2020-01-02,0225,505,,,131 PONCE DE LEON AVE NE,Evening Watch,18,LARCENY-FROM VEHICLE,0640,2305,Midtown,E,33.771990000000002,-84.383039999999994
200020190,2020-01-02,2020-01-01,2330,2020-01-02,0230,509,,,500 PIEDMONT AVE NE,Morning Watch,18,LARCENY-FROM VEHICLE,0640,2305,Downtown,M,33.767949999999999,-84.382109999999997
200020378,2020-01-02,2020-01-02,0100,2020-01-02,0645,105,,,136 CHAPPELL RD NW,Day Watch,20,LARCENY-FROM VEHICLE,0640,2305,Hunter Hills,K,33.758420000000001,-84.433869999999999
200020472,2020-01-02,2020-01-01,1800,2020-01-02,0800,305,,,1037 BOWEN CT SW,Day Watch,,LARCENY-FROM VEHICLE,0640,2305,High Point,Y,33.717469999999999,-84.39649
200020669,2020-01-02,2019-12-13,1500,2020-01-01,0800,207,,,40 PEACHTREE VALLEY RD NE,Evening Watch,26,LARCENY-FROM VEHICLE,0640,2305,,E,33.81062,-84.390860000000004
200020878,2020-01-02,2020-01-01,1730,2020-01-02,1206,205,,411,200 COLONIAL HOMES DR NW,Evening Watch,,LARCENY-FROM VEHICLE,0640,2305,Colonial Homes,C,33.81391,-84.394360000000006
200021018,2020-01-02,2020-01-02,1300,2020-01-02,1330,504,,,748 MARIETTA ST NW,Day Watch,14,LARCENY-FROM VEHICLE,0640,2305,Marietta Street Artery,E,33.772979999999997,-84.40343
200021028,2020-01-02,2020-01-01,1800,2020-01-02,1300,206,,,400 PHARR RD NE,Morning Watch,18,LARCENY-FROM VEHICLE,0640,2305,Buckhead Village,B,33.8371,-84.374700000000004
200021130,2020-01-02,2019-12-25,1200,2020-01-02,1340,509,,,250 PIEDMONT AVE NE @HILTON OFFICE TOWER,Evening Watch,18,LARCENY-FROM VEHICLE,0640,2305,Downtown,M,33.76126,-84.382230000000007
200021177,2020-01-02,2020-01-02,1242,2020-01-02,1510,508,,,275 BAKER ST NW,Evening Watch,18,LARCENY-FROM VEHICLE,0640,2305,Downtown,M,33.762059999999998,-84.395679999999999
200021599,2020-01-02,2020-01-01,1400,2020-01-02,1400,604,,,375 RALPH MCGILL BLVD NE,Unknown,,LARCENY-FROM VEHICLE,0640,2305,Old Fourth Ward,M,33.763680000000001,-84.375870000000006
200021742,2020-01-02,2019-12-23,1000,2020-01-02,1830,207,,228,464 BISHOP ST NW,Unknown,18,LARCENY-FROM VEHICLE,0640,2305,Loring Heights,E,33.792909999999999,-84.402670000000001
200021803,2020-01-02,2019-12-31,1600,2020-01-02,0630,205,,1340,214 COLONIAL HOMES DR NW,Evening Watch,18,LARCENY-FROM VEHICLE,0640,2305,Colonial Homes,C,33.813920000000003,-84.394589999999994
200021817,2020-01-02,2020-01-02,1905,2020-01-02,1928,209,,,4279 ROSWELL RD NE @Multiple,Evening Watch,13,LARCENY-FROM VEHICLE,0640,2305,North Buckhead,B,33.871209999999998,-84.379310000000004
200022038,2020-01-02,2020-01-02,1830,2020-01-02,2128,604,,,684 JOHN WESLEY DOBBS AVE NE @BELTLINE BUSINESS,Unknown,,LARCENY-FROM VEHICLE,0640,2305,Old Fourth Ward,M,33.759799999999998,-84.364429999999999
200022181,2020-01-02,2020-01-02,0215,2020-01-02,2325,210,,E108,3200 LENOX RD NE,Morning Watch,18,LARCENY-FROM VEHICLE,0640,2305,Pine Hills,B,33.842930000000003,-84.358249999999998
200022190,2020-01-02,2020-01-02,1920,2020-01-02,2145,507,,,398 TRENHOLM STREET SW,Evening Watch,13,LARCENY-FROM VEHICLE,0640,2305,Castleberry Hill,M,33.745809999999999,-84.403959999999998
200012052,2020-01-02,2020-01-01,1900,2020-01-01,2345,508,,,17 BAKER ST,Evening Watch,18,LARCENY-FROM VEHICLE,0640,2305,Downtown,M,33.762259999999998,-84.387550000000005
200020749,2020-01-02,2020-01-02,1000,2020-01-02,1015,411,,N-420,2841 GREENBRIAR PKWY SW @GREENBRIAR MALL,Day Watch,8,LARCENY-NON VEHICLE,0630,2303,Greenbriar,R,33.688450000000003,-84.493279999999999
200021071,2020-01-02,2020-01-02,1345,2020-01-02,1356,301,,,1344 METROPOLITAN PKWY SW,Evening Watch,23,LARCENY-NON VEHICLE,0630,2303,Capitol View Manor,X,33.718029999999999,-84.407740000000004
200021090,2020-01-02,2020-01-02,1412,2020-01-02,1449,501,,,375 18TH ST NW @TARGET - 18TH,Evening Watch,5,LARCENY-NON VEHICLE,0630,2303,Atlantic Station,E,33.793030000000002,-84.399209999999997
200021226,2020-01-02,2020-01-02,1500,2020-01-02,1525,211,,,2539 PIEDMONT RD NE,Unknown,8,LARCENY-NON VEHICLE,0630,2303,Lindbergh/Morosgo,B,33.82403,-84.363280000000003
200021402,2020-01-02,2020-01-02,1630,2020-01-02,1648,404,,,807 CASCADE AVE SW,Evening Watch,8,LARCENY-NON VEHICLE,0630,2303,Cascade Avenue/Road,S,33.733229999999999,-84.437950000000001
200021409,2020-01-02,2020-01-02,1651,2020-01-02,1651,210,,,3535 PEACHTREE RD NE @TARGET - PEACHTREE,Evening Watch,12,LARCENY-NON VEHICLE,0630,2303,Lenox,B,33.851819999999996,-84.359499999999997
200021724,2020-01-02,2020-01-02,1630,2020-01-02,1700,608,,,453 MORELAND AVE NE,Evening Watch,24,LARCENY-NON VEHICLE,0630,2303,Candler Park,N,33.766660000000002,-84.348939999999999
200021944,2020-01-02,2020-01-02,2000,2020-01-02,2042,204,,,1801 HOWELL MILL RD NW,Evening Watch,7,LARCENY-NON VEHICLE,0630,2303,Berkeley Park,D,33.803879999999999,-84.412779999999998
200030765,2020-01-03,2020-01-03,1105,2020-01-03,1155,401,,,923 LEE ST SW,Day Watch,23,LARCENY-NON VEHICLE,0630,2303,West End,T,33.729909999999997,-84.416070000000005
200030810,2020-01-03,2020-01-03,1100,2020-01-03,1110,102,,,835 MARTIN L KING JR DR NW,Day Watch,12,LARCENY-NON VEHICLE,0630,2303,Vine City,L,33.755040000000001,-84.414569999999998
200030887,2020-01-03,2020-01-03,1100,2020-01-03,1500,501,,,375 18TH ST NW @TARGET - 18TH,Day Watch,24,LARCENY-NON VEHICLE,0630,2303,Atlantic Station,E,33.793030000000002,-84.399209999999997
200030890,2020-01-03,2020-01-02,1410,2020-01-02,1427,210,,,3393 PEACHTREE RD NE @LENOX MALL,Day Watch,24,LARCENY-NON VEHICLE,0630,2303,Lenox,B,33.846760000000003,-84.362120000000004
200030965,2020-01-03,2020-01-03,1150,2020-01-03,1300,401,,,829 RALPH D ABERNATHY BLVD SW,Day Watch,24,LARCENY-NON VEHICLE,0630,2303,West End,T,33.738329999999998,-84.415019999999998
200030986,2020-01-03,2020-01-03,1212,2020-01-03,1538,211,,,2539 PIEDMONT RD NE @TARGET - PIEDMONT,Evening Watch,,LARCENY-NON VEHICLE,0630,2303,Lindbergh/Morosgo,B,33.82403,-84.363280000000003
200031061,2020-01-03,2020-01-03,1330,2020-01-03,1350,107,,,1981 JOSEPH E BOONE BLVD NW,Evening Watch,,LARCENY-NON VEHICLE,0630,2303,Grove Park,J,33.764859999999999,-84.451740000000001
200031172,2020-01-03,2020-01-03,1256,2020-01-03,1538,211,,,2539 PIEDMONT RD NE @TARGET - PIEDMONT,Evening Watch,12,LARCENY-NON VEHICLE,0630,2303,Lindbergh/Morosgo,B,33.82403,-84.363280000000003
200030121,2020-01-03,2020-01-02,2300,2020-01-03,0100,604,,,458 EDGEWOOD AVE NE,Morning Watch,18,LARCENY-FROM VEHICLE,0640,2305,Sweet Auburn,M,33.754519999999999,-84.372680000000003
200030243,2020-01-03,2020-01-02,1946,2020-01-03,0250,505,,,659 PEACHTREE ST NE @GEORGIAN TERRACE,Evening Watch,18,LARCENY-FROM VEHICLE,0640,2305,Midtown,E,33.772579999999998,-84.38449
200030214,2020-01-03,2020-01-03,0115,2020-01-03,0140,209,,,3771 ROSWELL RD NE,Morning Watch,3,LARCENY-NON VEHICLE,0610,2301,North Buckhead,B,33.857500000000002,-84.381590000000003
200030244,2020-01-03,2020-01-02,1700,2020-01-03,0254,307,,,611 AMAL DR SW,Unknown,26,LARCENY-FROM VEHICLE,0640,2305,Amal Heights,Y,33.708089999999999,-84.398099999999999
200030300,2020-01-03,2020-01-03,0230,2020-01-03,0350,509,,,223 PEACHTREE ST NE @WHITEHEAD BUILDING,Morning Watch,18,LARCENY-FROM VEHICLE,0640,2305,Downtown,M,33.76023,-84.387460000000004
200030312,2020-01-03,2020-01-03,0422,2020-01-03,0422,412,,,2019 SANDLAKE DR SW,Morning Watch,20,LARCENY-FROM VEHICLE,0640,2305,,P,33.69905,-84.542940000000002
200030385,2020-01-03,2020-01-02,1800,2020-01-03,0600,402,,,839 ATWOOD ST SW,Day Watch,13,LARCENY-FROM VEHICLE,0640,2305,Oakland City,S,33.732140000000001,-84.429640000000006
200030393,2020-01-03,2020-01-03,0100,2020-01-03,0600,605,,,301 MEMORIAL DR SE,Day Watch,18,LARCENY-FROM VEHICLE,0640,2305,Grant Park,W,33.746499999999997,-84.377669999999995
200030541,2020-01-03,2020-01-03,0849,2020-01-03,0849,306,,,2095 METROPOLITAN PKWY SW,Day Watch,23,LARCENY-FROM VEHICLE,0640,2305,Sylvan Hills,X,33.69753,-84.4084
200030757,2020-01-03,2020-01-02,2130,2020-01-03,1100,212,,,415 ARMOUR DR NE,Unknown,26,LARCENY-FROM VEHICLE,0640,2305,,F,33.812669999999997,-84.374120000000005
200030967,2020-01-03,2019-12-31,0400,2020-01-01,0800,412,,,4638 GREENBRIAR TRL SW,Day Watch,20,LARCENY-FROM VEHICLE,0640,2305,Greenbriar Village,P,33.704520000000002,-84.539060000000006
200030970,2020-01-03,2020-01-02,1400,2020-01-02,1900,212,,,1141 SHERIDAN RD NE,Evening Watch,5,LARCENY-FROM VEHICLE,0640,2305,Lindridge/Martin Manor,F,33.819859999999998,-84.350449999999995
200030974,2020-01-03,2020-01-02,1000,2020-01-02,1300,103,,,1455 ELLSWORTH INDUSTRIAL BLVD NW,Day Watch,,LARCENY-FROM VEHICLE,0640,2305,Blandtown,D,33.795789999999997,-84.425749999999994
200031373,2020-01-03,2020-01-02,2200,2020-01-03,0830,614,,,511 8TH ST NE,Evening Watch,20,LARCENY-FROM VEHICLE,0640,2305,Midtown,E,33.77928,-84.370320000000007
200031478,2020-01-03,2020-01-03,1630,2020-01-03,1658,411,,,2841 GREENBRIAR PKWY SW @GREENBRIAR MALL,Evening Watch,18,LARCENY-FROM VEHICLE,0640,2305,Greenbriar,R,33.688450000000003,-84.493279999999999
200031491,2020-01-03,2020-01-03,1400,2020-01-03,1530,602,,,44 KROG ST NE,Evening Watch,18,LARCENY-FROM VEHICLE,0640,2305,Inman Park,N,33.755420000000001,-84.364819999999995
200031517,2020-01-03,2020-01-03,1556,2020-01-03,1559,210,,,3535 PEACHTREE RD NE @TARGET - PEACHTREE,Evening Watch,18,LARCENY-FROM VEHICLE,0640,2305,Lenox,B,33.851819999999996,-84.359499999999997
200031539,2020-01-03,2020-01-03,1600,2020-01-03,1725,201,,,1160 MOORES MILL RD NW,Evening Watch,18,LARCENY-FROM VEHICLE,0640,2305,Brandon,C,33.831330000000001,-84.424980000000005
200031891,2020-01-03,2020-01-03,1814,2020-01-03,1940,613,,,761 COURTENAY DR NE,Evening Watch,13,LARCENY-FROM VEHICLE,0640,2305,Morningside/Lenox Park,F,33.78998,-84.361760000000004
200031938,2020-01-03,2020-01-03,1830,2020-01-03,2000,613,,,1212 LANIER BLVD NE,Evening Watch,,LARCENY-FROM VEHICLE,0640,2305,Morningside/Lenox Park,F,33.787840000000003,-84.350139999999996
200031961,2020-01-03,2020-01-03,1700,2020-01-03,2000,608,,,427 MORELAND AVE NE,Evening Watch,3,LARCENY-FROM VEHICLE,0640,2305,Candler Park,N,33.76605,-84.348929999999996
200031973,2020-01-03,2020-01-03,1845,2020-01-03,2015,602,,,675 N HIGHLAND AVE NE,Evening Watch,18,LARCENY-FROM VEHICLE,0640,2305,Poncey-Highland,N,33.7729,-84.352410000000006
200031982,2020-01-03,2020-01-03,1900,2020-01-03,2020,602,,,1083 EUCLID AVE NE,Evening Watch,18,LARCENY-FROM VEHICLE,0640,2305,Inman Park,N,33.76323,-84.351550000000003
200031984,2020-01-03,2020-01-03,1830,2020-01-03,2020,612,,,GLENWOOD AVE SE / JOSEPH AVE SE,Evening Watch,18,LARCENY-FROM VEHICLE,0640,2305,East Atlanta,W,33.740160000000003,-84.346890000000002
200032008,2020-01-03,2020-01-03,1830,2020-01-03,2030,602,,,781 ASHLAND AVE NE,Evening Watch,13,LARCENY-FROM VEHICLE,0640,2305,Inman Park,N,33.757919999999999,-84.362629999999996
200032057,2020-01-03,2020-01-03,1930,2020-01-03,2100,602,,,918 AUSTIN AVE NE,Evening Watch,18,LARCENY-FROM VEHICLE,0640,2305,Inman Park,N,33.762039999999999,-84.357249999999993
200032123,2020-01-03,2020-01-03,1845,2020-01-03,2305,207,,,225 26TH ST NW,Evening Watch,18,LARCENY-FROM VEHICLE,0640,2305,Brookwood,E,33.802909999999997,-84.399360000000001
200032208,2020-01-03,2020-01-03,2115,2020-01-03,2220,207,,,1784 PEACHTREE RD NW,Morning Watch,,LARCENY-FROM VEHICLE,0640,2305,Ardmore,E,33.803339999999999,-84.393510000000006
200032209,2020-01-03,2020-01-03,2200,2020-01-03,2230,605,,,301 GRANT CIRCLE SE,Morning Watch,13,LARCENY-FROM VEHICLE,0640,2305,Grant Park,W,33.725479999999997,-84.377309999999994
200032213,2020-01-03,2020-01-03,2105,2020-01-03,2225,212,,,2345 CHESHIRE BRIDGE RD NE,Evening Watch,18,LARCENY-FROM VEHICLE,0640,2305,Lindridge/Martin Manor,F,33.81906,-84.351299999999995
200032218,2020-01-03,2020-01-03,2153,2020-01-03,2235,103,,,1738 MACARTHUR BLVD NW,Morning Watch,18,LARCENY-FROM VEHICLE,0640,2305,Bolton,D,33.81326,-84.444800000000001
200032264,2020-01-03,2020-01-03,2004,2020-01-03,2300,503,,,1136 CRESCENT AVE NE,Evening Watch,13,LARCENY-FROM VEHICLE,0640,2305,Midtown,E,33.78575,-84.384510000000006
200032303,2020-01-03,2020-01-03,2250,2020-01-03,2300,212,,,1824 CHESHIRE BRIDGE RD NE,Morning Watch,18,LARCENY-FROM VEHICLE,0640,2305,Morningside/Lenox Park,F,33.809310000000004,-84.363029999999995
200031233,2020-01-03,2019-12-31,0140,2019-12-31,0157,501,,,147 15TH ST NE,Morning Watch,18,LARCENY-FROM VEHICLE,0650,2304,Midtown,E,33.787019999999998,-84.382710000000003
200032244,2020-01-03,2020-01-03,2100,2020-01-03,2251,206,,,75 E WESLEY RD NE,Morning Watch,18,LARCENY-FROM VEHICLE,0650,2304,Peachtree Heights East,B,33.828440000000001,-84.384979999999999
200030926,2020-01-03,2020-01-03,1215,2020-01-03,1230,401,,,571 JOSEPH E LOWERY BLVD SW,Day Watch,24,LARCENY-NON VEHICLE,0670,2308,West End,T,33.739570000000001,-84.4178
200031556,2020-01-03,2020-01-03,1734,2020-01-03,1735,510,,,171 AUBURN AVE NE @CITY WALK APARTMENTS,Evening Watch,21,LARCENY-NON VEHICLE,0670,2308,Downtown,M,33.755459999999999,-84.38185
200030823,2020-01-03,2020-01-02,1240,2020-01-03,0350,606,,,981 KIRKWOOD AVE SE,Day Watch,20,LARCENY-NON VEHICLE,0690,2399,Reynoldstown,N,33.750059999999998,-84.355220000000003
200031317,2020-01-03,2020-01-03,1000,2020-01-03,1428,401,,,1241 LUCILE AVE SW,Evening Watch,20,LARCENY-NON VEHICLE,0690,2310,West End,T,33.742530000000002,-84.428349999999995
200031618,2020-01-03,2019-11-11,0800,2020-01-03,1756,508,,,240 PEACHTREE ST NW @MERCHANDISE MART,Evening Watch,5,LARCENY-NON VEHICLE,0690,2399,Downtown,M,33.760559999999998,-84.388350000000003
200030445,2020-01-03,2020-01-03,0700,2020-01-03,0710,414,,I-134,3390 FAIRBURN RD SW,Day Watch,18,AUTO THEFT,0710,2404,Ben Hill,P,33.663899999999998,-84.523769999999999
200030727,2020-01-03,2019-12-20,1200,2020-01-03,1030,204,,H,2148 HILLS AVE NW,Morning Watch,18,AUTO THEFT,0710,2404A,Underwood Hills,D,33.814030000000002,-84.431020000000004
200030733,2020-01-03,2020-01-03,0650,2020-01-03,0700,205,,,490 COLLIER RD NW,Day Watch,31,AUTO THEFT,0710,2404,Collier Hills,C,33.810929999999999,-84.403419999999997
200031960,2020-01-03,2020-01-03,1800,2020-01-03,1842,206,,,3167 PEACHTREE RD NE,Evening Watch,21,AUTO THEFT,0710,2404,Buckhead Village,B,33.840310000000002,-84.375879999999995
200030188,2020-01-03,2020-01-03,0157,2020-01-03,0157,410,,,2280  CAMPBELLTON ROAD,Morning Watch,13,ROBBERY-PEDESTRIAN,0311,1204,Campbellton Road,R,33.704129999999999,-84.462689999999995
200030052,2020-01-03,2020-01-03,0000,2020-01-03,0030,511,,,2 KIMBALL WAY SE,Morning Watch,13,ROBBERY-PEDESTRIAN,0341,1206,Downtown,M,33.753489999999999,-84.388540000000006
200031931,2020-01-03,2020-01-03,2000,2020-01-03,2000,607,,,1120 MORELAND DR SE,Evening Watch,,ROBBERY-PEDESTRIAN,0341,1206,Custer/McDonough/Guice,W,33.709200000000003,-84.353899999999996
200030050,2020-01-03,2020-01-03,0015,2020-01-03,0030,207,,628,464 BISHOP ST NW,Morning Watch,,ROBBERY-RESIDENCE,0315,1207,Loring Heights,E,33.792909999999999,-84.402670000000001
200031403,2020-01-03,2020-01-03,1630,2020-01-03,1635,311,,,2920 WATERS RD SW,Evening Watch,20,AGG ASSAULT,0420,1315K,Glenrose Heights,Z,33.675289999999997,-84.394660000000002
200031581,2020-01-03,2020-01-03,1743,2020-01-03,1743,307,,,1665 JONESBORO RD SE,Evening Watch,18,AGG ASSAULT,0430,1315,Lakewood Heights,Y,33.706620000000001,-84.379859999999994
200031981,2020-01-03,2020-01-03,2020,2020-01-03,2110,510,,,71 PEACHTREE ST NE @WOODRUFF PARK,Evening Watch,31,AGG ASSAULT,0440,1399,Downtown,M,33.755200000000002,-84.388580000000005
200030123,2020-01-03,2019-12-31,2315,2020-01-03,0110,603,,,368 ANGIER AVE NE,Morning Watch,20,BURGLARY-RESIDENCE,0511,2202,Old Fourth Ward,M,33.766820000000003,-84.375339999999994
200031302,2020-01-03,2020-01-03,1500,2020-01-03,1555,409,,26J,2909 CAMPBELLTON RD SW,Evening Watch,26,BURGLARY-RESIDENCE,0511,2202,Southwest,R,33.698689999999999,-84.482650000000007
200031823,2020-01-03,2020-01-03,1745,2020-01-03,1922,101,,1906,565 GREENSFERRY AVE SW,Evening Watch,26,BURGLARY-RESIDENCE,0511,2202,The Villages at Castleberry Hill,T,33.746510000000001,-84.406750000000002
200031830,2020-01-03,2019-12-28,1200,2020-01-03,1900,202,,,1219 SWIMS VALLEY DR NW,Morning Watch,20,BURGLARY-RESIDENCE,0511,2202,Mt. Paran/Northside,A,33.878210000000003,-84.427250000000001
200030842,2020-01-03,2019-12-23,1100,2019-12-23,1400,505,,1133,782 PEACHTREE ST NE,Day Watch,19,BURGLARY-NONRES,0522,2205,Midtown,E,33.775930000000002,-84.384659999999997
200030953,2020-01-03,2020-01-03,1255,2020-01-03,1255,303,,,668 SMITH ST SW,Day Watch,20,BURGLARY-RESIDENCE,0531,2202A,Mechanicsville,V,33.736759999999997,-84.400700000000001
200040803,2020-01-04,2020-01-03,1900,2020-01-04,0900,607,,,915 GLENWOOD AVE SE,Day Watch,6,BURGLARY-NONRES,0512,2203,Ormewood Park,W,33.739019999999996,-84.357900000000001
200040813,2020-01-04,2020-01-04,0400,2020-01-04,0415,407,,,264 WILSON MILL RD SW,Day Watch,4,BURGLARY-NONRES,0512,2203,Wisteria Gardens,H,33.755960000000002,-84.514080000000007
200040610,2020-01-04,2020-01-04,0750,2020-01-04,0805,405,,,2427 ROSE MILL CT SW,Day Watch,20,BURGLARY-RESIDENCE,0511,2202,Florida Heights,I,33.746299999999998,-84.469750000000005
200040721,2020-01-04,2019-12-24,1800,2020-01-04,0945,606,,642,777 MEMORIAL DR SE,Evening Watch,26,BURGLARY-RESIDENCE,0511,2202,Reynoldstown,N,33.746540000000003,-84.361360000000005
200040733,2020-01-04,2019-12-30,1500,2020-01-04,0730,207,,B5,500 NORTHSIDE CIR NW,Unknown,26,BURGLARY-RESIDENCE,0511,2202,Loring Heights,E,33.797240000000002,-84.406679999999994
200040762,2020-01-04,2020-01-04,0900,2020-01-04,0900,312,,,225 OAK DR,Day Watch,20,BURGLARY-RESIDENCE,0511,2202,Glenrose Heights,Z,33.668300000000002,-84.386160000000004
200042345,2020-01-04,2019-12-21,1400,2020-01-04,2245,205,,2407,214 COLONIAL HOMES DR NW,Morning Watch,26,BURGLARY-RESIDENCE,0511,2202,Colonial Homes,C,33.813920000000003,-84.394589999999994
200042417,2020-01-04,2020-01-04,2330,2020-01-04,2335,606,,,1143 VILLAGE CT SE,Morning Watch,26,BURGLARY-RESIDENCE,0511,2202,Ormewood Park,W,33.743929999999999,-84.351100000000002
200042386,2020-01-04,2020-01-04,2300,2020-01-04,2315,508,,,150 WALTON STREET,Morning Watch,13,AGG ASSAULT,0420,1315K,Downtown,M,33.758119999999998,-84.392920000000004
200042085,2020-01-04,2020-01-04,2040,2020-01-04,2040,112,,,2938 ELEANOR TER NW,Evening Watch,20,AGG ASSAULT,0410,1314,Collier Heights,I,33.77854,-84.483779999999996
200042188,2020-01-04,2020-01-04,2124,2020-01-04,2124,106,APT,B23,1167 JOSEPH E BOONE BLVD NW,Evening Watch,26,AGG ASSAULT,0410,1314,Bankhead,K,33.763599999999997,-84.426010000000005
200042419,2020-01-04,2020-01-04,2320,2020-01-05,0100,307,,,1607 JONESBORO RD SE,Morning Watch,20,AGG ASSAULT,0410,1314,Lakewood Heights,Y,33.708210000000001,-84.381119999999996
200041256,2020-01-04,2020-01-02,0630,2020-01-03,1800,612,,,570 BROWNWOOD AVE SE,Evening Watch,20,AUTO THEFT,0730,2434,East Atlanta,W,33.738770000000002,-84.347809999999996
200042076,2020-01-04,2020-01-04,2000,2020-01-04,2130,102,,,835 MARTIN L KING JR DR NW,Evening Watch,12,AUTO THEFT,0730,2434,Vine City,L,33.755040000000001,-84.414569999999998
200041063,2020-01-04,2020-01-04,1235,2020-01-04,1240,210,,,855 E PACES FERRY RD NE,Day Watch,32,ROBBERY-PEDESTRIAN,0311,1204,Lenox,B,33.846690000000002,-84.356179999999995
200042468,2020-01-04,2020-01-04,2352,2020-01-04,2356,503,,,1080 PEACHTREE ST NE,Morning Watch,13,ROBBERY-PEDESTRIAN,0311,1204,Midtown,E,33.784089999999999,-84.383529999999993
200040282,2020-01-04,2020-01-04,0220,2020-01-04,0240,305,,3926,178 MOURY AVE SW,Morning Watch,26,ROBBERY-RESIDENCE,0345,1209,The Villages at Carver,Y,33.713470000000001,-84.390789999999996
200042163,2020-01-04,2020-01-04,2100,2020-01-04,2112,310,,,2455 ANTWERP DR SE,Evening Watch,20,ROBBERY-RESIDENCE,0345,1209,Browns Mill Park,Z,33.687449999999998,-84.385509999999996
200040020,2020-01-04,2020-01-03,2355,2020-01-04,0010,204,,,1203 COLLIER RD NW,Morning Watch,23,AUTO THEFT,0710,2404,,C,33.811630000000001,-84.425359999999998
200040226,2020-01-04,2020-01-03,2300,2020-01-04,0100,505,,,855 PEACHTREE ST NE,Morning Watch,18,AUTO THEFT,0710,2404,Midtown,E,33.777000000000001,-84.383859999999999
200040603,2020-01-04,2020-01-04,0820,2020-01-04,0820,302,,,1135 COLEMAN ST SW,Day Watch,20,AUTO THEFT,0710,2404,Pittsburgh,V,33.723999999999997,-84.404169999999993
200040660,2020-01-04,2020-01-03,2230,2020-01-04,0900,313,,,3405 EISENHOWER CIR SE,Evening Watch,18,AUTO THEFT,0710,2404,South River Gardens,Z,33.659140000000001,-84.356359999999995
200040839,2020-01-04,2020-01-03,1120,2020-01-03,1220,105,,,1417 LAVENDER DR NW,Unknown,13,AUTO THEFT,0710,2404,Hunter Hills,K,33.761479999999999,-84.434259999999995
200040889,2020-01-04,2020-01-03,0800,2020-01-03,1900,612,,,1326 GLENWOOD AVE SE,Day Watch,18,AUTO THEFT,0710,2404,East Atlanta,W,33.740450000000003,-84.344110000000001
200040911,2020-01-04,2020-01-02,1345,2020-01-04,1100,210,,10403,1050 LENOX PARK BLVD NE,Morning Watch,18,AUTO THEFT,0710,2404,Pine Hills,B,33.850160000000002,-84.348460000000003
200041353,2020-01-04,2020-01-04,1000,2020-01-04,1530,509,,4025,396 PIEDMONT AVE NE,Evening Watch,18,AUTO THEFT,0710,2404,Downtown,M,33.765259999999998,-84.382159999999999
200041536,2020-01-04,2020-01-04,0030,2020-01-04,1650,604,,P,391 RALPH MCGILL BLVD NE,Evening Watch,,AUTO THEFT,0710,2404,Old Fourth Ward,M,33.763910000000003,-84.374709999999993
200042244,2020-01-04,2020-01-04,2100,2020-01-04,2150,209,,,4233 ROSWELL RD NE,Evening Watch,18,AUTO THEFT,0710,2404,North Buckhead,B,33.870010000000001,-84.380589999999998
200042264,2020-01-04,2020-01-04,1900,2020-01-04,2200,312,,123,85 MOUNT ZION RD SE,Morning Watch,18,AUTO THEFT,0710,2404,Glenrose Heights,Z,33.672690000000003,-84.386780000000002
200040630,2020-01-04,2020-01-04,0229,2020-01-04,0230,503,,A,936 MYRTLE ST NE,Morning Watch,20,LARCENY-NON VEHICLE,0690,2399,Midtown,E,33.780079999999998,-84.37961
200041055,2020-01-04,2020-01-03,1530,2020-01-04,1240,201,,,3200 HOWELL MILL RD NW ,Evening Watch,6,LARCENY-NON VEHICLE,0690,2399,,C,33.842059999999996,-84.428619999999995
200041229,2020-01-04,2020-01-03,2200,2020-01-04,0700,211,,,2479 PEACHTREE RD NE,Unknown,18,LARCENY-NON VEHICLE,0660,2317,Peachtree Hills,B,33.822499999999998,-84.386520000000004
200040188,2020-01-04,2020-01-04,0100,2020-01-04,0110,210,,,1001 GARDEN VIEW DR NE,Morning Watch,20,LARCENY-NON VEHICLE,0670,2308,Pine Hills,B,33.848950000000002,-84.349040000000002
200040624,2020-01-04,2020-01-03,2300,2020-01-03,2345,509,,2537,255 COURTLAND ST NE,Morning Watch,14,LARCENY-NON VEHICLE,0670,2308,Downtown,M,33.761389999999999,-84.384060000000005
200041296,2020-01-04,2019-12-01,1200,2020-01-02,1200,306,1965,501,1965 RAMBLING DR SW,Evening Watch,26,LARCENY-NON VEHICLE,0670,2308,Sylvan Hills,X,33.70111,-84.405479999999997
200040218,2020-01-04,2020-01-03,2030,2020-01-04,0140,612,,,2069 CHESHIRE BRIDGE RD NE,Day Watch,18,LARCENY-FROM VEHICLE,0650,2304,Lindridge/Martin Manor,F,33.811480000000003,-84.355230000000006
200041130,2020-01-04,2020-01-01,0000,2020-01-04,1355,110,,,1783 JOHNSON RD NW,Evening Watch,20,LARCENY-FROM VEHICLE,0650,2304,Rockdale,G,33.785469999999997,-84.445930000000004
200041409,2020-01-04,2020-01-04,0630,2020-01-04,1600,208,,,3334 PEACHTREE RD NE @ONE BUCKHEAD LOOP,Day Watch,18,LARCENY-FROM VEHICLE,0650,2304,North Buckhead,B,33.849110000000003,-84.370750000000001
200041581,2020-01-04,2020-01-04,1700,2020-01-04,1715,303,,,307 RICHARDSON ST SW,Evening Watch,24,LARCENY-NON VEHICLE,0680,2307,Mechanicsville,V,33.740839999999999,-84.397670000000005
200040023,2020-01-04,2020-01-03,2200,2020-01-03,2345,501,,,1025 HOWELL MILL RD NW,Morning Watch,18,LARCENY-FROM VEHICLE,0640,2305,Home Park,E,33.782850000000003,-84.411259999999999
200040068,2020-01-04,2020-01-03,2200,2020-01-04,0024,206,,,264 PHARR RD NE,Morning Watch,18,LARCENY-FROM VEHICLE,0640,2305,Buckhead Village,B,33.837319999999998,-84.378600000000006
200040180,2020-01-04,2020-01-03,1930,2020-01-04,0115,306,,,3137 LAKEWOOD AVE SW,Morning Watch,18,LARCENY-FROM VEHICLE,0640,2305,Sylvan Hills,X,33.697510000000001,-84.42089
200040224,2020-01-04,2020-01-03,2230,2020-01-04,0140,504,,,469 MARIETTA ST NW,Morning Watch,13,LARCENY-FROM VEHICLE,0640,2305,Downtown,M,33.765639999999998,-84.396690000000007
200040338,2020-01-04,2020-01-04,0130,2020-01-04,0256,501,,,398 14TH ST NW,Morning Watch,18,LARCENY-FROM VEHICLE,0640,2305,Home Park,E,33.78593,-84.40025
200040376,2020-01-04,2020-01-04,0000,2020-01-04,0334,602,,,448 MORELAND AVE NE,Morning Watch,18,LARCENY-FROM VEHICLE,0640,2305,Inman Park,N,33.766539999999999,-84.349159999999998
200040379,2020-01-04,2020-01-03,2340,2020-01-04,0300,508,,,30 IVAN ALLEN JR BLVD NW,Morning Watch,13,LARCENY-FROM VEHICLE,0640,2305,Downtown,M,33.76444,-84.388400000000004
200040559,2020-01-04,2020-01-04,0126,2020-01-04,0130,508,,,111 CONE ST NW,Morning Watch,13,LARCENY-FROM VEHICLE,0640,2305,Downtown,M,33.757980000000003,-84.389690000000002
200040613,2020-01-04,2020-01-03,2300,2020-01-04,0800,313,,,3645 SOUTHSIDE INDUSTRIAL PKWY SE,Evening Watch,18,LARCENY-FROM VEHICLE,0640,2305,Blair Villa/Poole Creek,Z,33.659260000000003,-84.374420000000001
200040702,2020-01-04,2020-01-04,0800,2020-01-04,0934,304,,,460 FRASER ST SE,Day Watch,99,LARCENY-FROM VEHICLE,0640,2305,Summerhill,V,33.742269999999998,-84.386070000000004
200040797,2020-01-04,2020-01-04,0100,2020-01-04,1000,606,,,1074 SEABOARD AVE NE,Morning Watch,13,LARCENY-FROM VEHICLE,0640,2305,Reynoldstown,N,33.758130000000001,-84.351209999999995
200040799,2020-01-04,2020-01-04,0715,2020-01-04,1015,509,,,134 BAKER ST NE,Day Watch,13,LARCENY-FROM VEHICLE,0640,2305,Downtown,M,33.762410000000003,-84.383070000000004
200040945,2020-01-04,2020-01-03,2230,2020-01-04,1115,210,,,3443 KINGSBORO RD NE,Morning Watch,18,LARCENY-FROM VEHICLE,0640,2305,Buckhead Heights,B,33.849600000000002,-84.357919999999993
200041011,2020-01-04,2019-12-30,2215,2019-12-31,0030,601,,,300 N HIGHLAND AVE,Evening Watch,18,LARCENY-FROM VEHICLE,0640,2305,Inman Park,N,33.762839999999997,-84.358590000000007
200041107,2020-01-04,2020-01-04,1045,2020-01-04,1330,504,,,640 MEANS ST NW,Evening Watch,13,LARCENY-FROM VEHICLE,0640,2305,Marietta Street Artery,E,33.77543,-84.407139999999998
200041145,2020-01-04,2019-12-21,1200,2020-01-04,1030,210,,439,3460 KINGSBORO RD NE,Day Watch,18,LARCENY-FROM VEHICLE,0640,2305,Buckhead Heights,B,33.850169999999999,-84.357699999999994
200041195,2020-01-04,2020-01-03,0800,2020-01-03,1700,510,,,200 EDGEWOOD AVE NE,Unknown,18,LARCENY-FROM VEHICLE,0640,2305,Downtown,M,33.75479,-84.381020000000007
200041225,2020-01-04,2020-01-04,1413,2020-01-04,1420,204,,,530 CHATTAHOOCHEE ROW NW,Evening Watch,18,LARCENY-FROM VEHICLE,0640,2305,Underwood Hills,D,33.804510000000001,-84.429490000000001
200041233,2020-01-04,2020-01-03,1800,2020-01-04,1345,503,,2121,955 JUNIPER ST NE,Evening Watch,18,LARCENY-FROM VEHICLE,0640,2305,Midtown,E,33.780830000000002,-84.382459999999995
200041257,2020-01-04,2020-01-04,0200,2020-01-04,1512,304,,,750 TERRY ST SE,Unknown,13,LARCENY-FROM VEHICLE,0640,2305,Summerhill,V,33.734139999999996,-84.384680000000003
200041267,2020-01-04,2020-01-03,2100,2020-01-04,1430,608,,,2122 MCLENDON AVE NE,Evening Watch,13,LARCENY-FROM VEHICLE,0640,2305,Lake Claire,N,33.765810000000002,-84.318010000000001
200041335,2020-01-04,2020-01-04,1540,2020-01-04,1545,106,,,1660 JOHNSON RD NW,Evening Watch,6,LARCENY-FROM VEHICLE,0640,2305,Rockdale,G,33.785330000000002,-84.439089999999993
200041478,2020-01-04,2020-01-04,1500,2020-01-04,1615,604,,,180 JACKSON ST NE @ATLANTA OVERLOOK AP,Evening Watch,13,LARCENY-FROM VEHICLE,0640,2305,Sweet Auburn,M,33.75929,-84.376279999999994
200041547,2020-01-04,2020-01-04,1430,2020-01-04,1700,103,,,2011 BOLTON RD NW @PERRY HOME BRANCH,Evening Watch,18,LARCENY-FROM VEHICLE,0640,2305,Riverside,D,33.810400000000001,-84.477050000000006
200042302,2020-01-04,2020-01-04,1700,2020-01-04,2215,510,,,63 PEACHTREE CENTER AVE NE,Evening Watch,18,LARCENY-FROM VEHICLE,0640,2305,Downtown,M,33.756309999999999,-84.38561
200042315,2020-01-04,2020-01-04,2135,2020-01-04,2150,209,,,3861 ROSWELL RD NE,Evening Watch,18,LARCENY-FROM VEHICLE,0640,2305,North Buckhead,B,33.8596,-84.37979
200042317,2020-01-04,2020-01-04,2200,2020-01-04,2215,207,,4604,1700 NORTHSIDE DR NW,Morning Watch,,LARCENY-FROM VEHICLE,0640,2305,Berkeley Park,D,33.801209999999998,-84.407910000000001
200042325,2020-01-04,2020-01-04,1140,2020-01-04,2215,508,,,123 MARIETTA STREET NW,Day Watch,,LARCENY-FROM VEHICLE,0640,2305,Downtown,M,33.757899999999999,-84.393510000000006
200040939,2020-01-04,2020-01-04,1130,2020-01-04,1145,609,,,1275 CAROLINE ST NE @TARGET - CAROLINE,Day Watch,12,LARCENY-NON VEHICLE,0630,2303,Edgewood,O,33.756740000000001,-84.346190000000007
200041072,2020-01-04,2020-01-04,1310,2020-01-04,1310,211,,,2539 PIEDMONT RD NE @TARGET - PIEDMONT,Day Watch,8,LARCENY-NON VEHICLE,0630,2303,Lindbergh/Morosgo,B,33.82403,-84.363280000000003
200041288,2020-01-04,2020-01-04,1521,2020-01-04,1525,609,,,1275 CAROLINE ST NE @TARGET - CAROLINE,Evening Watch,,LARCENY-NON VEHICLE,0630,2303,Edgewood,O,33.756740000000001,-84.346190000000007
200041612,2020-01-04,2020-01-04,1700,2020-01-04,1724,609,,,1275 CAROLINE ST NE @TARGET - CAROLINE,Evening Watch,12,LARCENY-NON VEHICLE,0630,2303,Edgewood,O,33.756740000000001,-84.346190000000007
200041625,2020-01-04,2020-01-04,1700,2020-01-04,1723,501,,,375 18TH ST NW @TARGET - 18TH,Evening Watch,8,LARCENY-NON VEHICLE,0630,2303,Atlantic Station,E,33.793030000000002,-84.399209999999997
200041654,2020-01-04,2020-01-04,1700,2020-01-04,1733,102,,,835 MARTIN L KING JR DR NW,Evening Watch,12,LARCENY-NON VEHICLE,0630,2303,Vine City,L,33.755040000000001,-84.414569999999998
200042370,2020-01-04,2020-01-04,2230,2020-01-04,2301,504,,,199 MILLS ST NW,Evening Watch,,LARCENY-FROM VEHICLE,0640,2305,Downtown,M,33.765410000000003,-84.393839999999997
200042437,2020-01-04,2020-01-04,2000,2020-01-04,2340,207,,,2143 PEACHTREE RD NE,Evening Watch,,LARCENY-FROM VEHICLE,0640,2305,,E,33.812620000000003,-84.391949999999994
200042458,2020-01-04,2020-01-04,2240,2020-01-05,0140,211,,,737 MIAMI CIR NE,Morning Watch,,LARCENY-FROM VEHICLE,0640,2305,Lindbergh/Morosgo,B,33.83005,-84.362449999999995
200050017,2020-01-05,2020-01-04,1930,2020-01-05,0000,206,,,340 PHARR RD,Evening Watch,18,LARCENY-FROM VEHICLE,0640,2305,Garden Hills,B,33.837020000000003,-84.376360000000005
200050102,2020-01-05,2020-01-05,0030,2020-01-05,0040,309,,,2461 METROPOLITAN PKWY SW,Morning Watch,23,LARCENY-FROM VEHICLE,0640,2305,Perkerson,X,33.687829999999998,-84.408879999999996
200050243,2020-01-05,2020-01-04,2300,2020-01-05,0100,510,,,AUBURN AVE NE / BELL ST NE,Morning Watch,,LARCENY-FROM VEHICLE,0640,2305,Downtown,M,33.75553,-84.379419999999996
200050331,2020-01-05,2020-01-05,0307,2020-01-05,0330,401,,,612 LEE ST SW,Morning Watch,18,LARCENY-FROM VEHICLE,0640,2305,West End,T,33.738799999999998,-84.413600000000002
200050414,2020-01-05,2020-01-04,2330,2020-01-05,0410,501,,,1210 HOWELL MILL RD NW,Morning Watch,13,LARCENY-FROM VEHICLE,0640,2305,Blandtown,D,33.787489999999998,-84.412180000000006
200050468,2020-01-05,2020-01-05,0200,2020-01-05,0345,208,,,3180 PEACHTREE RD NE,Morning Watch,18,LARCENY-FROM VEHICLE,0640,2305,Buckhead Forest,B,33.841830000000002,-84.375900000000001
200050509,2020-01-05,2020-01-05,0315,2020-01-05,0552,505,,,641 W PEACHTREE ST NW,Morning Watch,13,LARCENY-FROM VEHICLE,0640,2305,Midtown,E,33.773679999999999,-84.384770000000003
200050525,2020-01-05,2020-01-04,2110,2020-01-05,0630,502,,,26 PEACHTREE CIR NE,Evening Watch,13,LARCENY-FROM VEHICLE,0640,2305,Ansley Park,E,33.789630000000002,-84.382980000000003
200050642,2020-01-05,2020-01-04,2300,2020-01-05,0830,414,,,3370 SOMERSET TRL SW,Morning Watch,18,LARCENY-FROM VEHICLE,0640,2305,Huntington,P,33.662750000000003,-84.526359999999997
200050696,2020-01-05,2020-01-04,2030,2020-01-05,0930,505,,,710 PEACHTREE ST NE @HOWELL HOUSE,Morning Watch,13,LARCENY-FROM VEHICLE,0640,2305,Midtown,E,33.774070000000002,-84.385260000000002
200050705,2020-01-05,2020-01-04,2300,2020-01-05,0930,608,,,425 PAGE AVE NE,Day Watch,13,LARCENY-FROM VEHICLE,0640,2305,Candler Park,N,33.765830000000001,-84.333879999999994
200050794,2020-01-05,2019-12-31,2300,2020-01-05,1100,205,,,214 COLONIAL HOMES DR NW,Morning Watch,,LARCENY-FROM VEHICLE,0640,2305,Colonial Homes,C,33.813920000000003,-84.394589999999994
200050853,2020-01-05,2020-01-04,1200,2020-01-05,1140,305,,1702,187 MOURY AVE SW,Day Watch,18,LARCENY-FROM VEHICLE,0640,2305,The Villages at Carver,Y,33.714489999999998,-84.391379999999998
200050896,2020-01-05,2020-01-01,2330,2020-01-05,1130,508,,,17 BAKER ST NW,Morning Watch,18,LARCENY-FROM VEHICLE,0640,2305,Downtown,M,33.762349999999998,-84.388189999999994
200050917,2020-01-05,2020-01-05,1130,2020-01-05,1225,604,,,49 BOULEVARD SE,Day Watch,20,LARCENY-FROM VEHICLE,0640,2305,Sweet Auburn,M,33.75253,-84.372100000000003
200050944,2020-01-05,2020-01-04,1900,2020-01-05,0700,609,,,1450 LA FRANCE ST NE,Day Watch,13,LARCENY-FROM VEHICLE,0640,2305,Edgewood,O,33.760660000000001,-84.340170000000001
200050969,2020-01-05,2020-01-04,1148,2020-01-05,0048,605,,,821 GRANT ST SE,Day Watch,20,LARCENY-FROM VEHICLE,0640,2305,Grant Park,W,33.732030000000002,-84.376859999999994
200051006,2020-01-05,2020-01-05,1300,2020-01-05,1326,412,,12,1371 KIMBERLY WAY SW,Day Watch,26,LARCENY-FROM VEHICLE,0640,2305,Ashley Courts,P,33.717709999999997,-84.523150000000001
200051015,2020-01-05,2020-01-05,1230,2020-01-05,1330,504,,,218 MCAFEE ST NW,Evening Watch,13,LARCENY-FROM VEHICLE,0640,2305,Downtown,M,33.765329999999999,-84.394580000000005
200051025,2020-01-05,2020-01-05,1320,2020-01-05,1328,211,,,2193 PEACHTREE RD NE,Day Watch,23,LARCENY-FROM VEHICLE,0640,2305,,E,33.814109999999999,-84.391440000000003
200051065,2020-01-05,2020-01-03,1930,2020-01-05,1330,210,,607,1001 GARDEN VIEW DR NE,Evening Watch,18,LARCENY-FROM VEHICLE,0640,2305,Pine Hills,B,33.848950000000002,-84.349040000000002
200051079,2020-01-05,2020-01-04,1600,2020-01-05,0500,206,,,128 E ANDREWS DR NW,Evening Watch,18,LARCENY-FROM VEHICLE,0640,2305,South Tuxedo Park,B,33.842509999999997,-84.383110000000002
200051080,2020-01-05,2020-01-04,2330,2020-01-05,1400,611,,,158 DOUGLAS ST SE,Evening Watch,20,LARCENY-FROM VEHICLE,0640,2305,Kirkwood,O,33.748469999999998,-84.319299999999998
200051126,2020-01-05,2020-01-05,1444,2020-01-05,1449,402,,,1193 LEE ST SW,Evening Watch,24,LARCENY-FROM VEHICLE,0640,2305,Oakland City,S,33.722610000000003,-84.423019999999994
200051182,2020-01-05,2020-01-05,1440,2020-01-05,1534,502,,,1071 PIEDMONT AVE NE,Evening Watch,18,LARCENY-FROM VEHICLE,0640,2305,Midtown,E,33.783850000000001,-84.378680000000003
200051287,2020-01-05,2020-01-05,1430,2020-01-05,1615,603,,,830 WILLOUGHBY WAY,Evening Watch,31,LARCENY-FROM VEHICLE,0640,2305,Old Fourth Ward,M,33.76585,-84.359989999999996
200051407,2020-01-05,2020-01-05,1735,2020-01-05,1736,507,,,256 MARIETTA ST NW,Evening Watch,18,LARCENY-FROM VEHICLE,0640,2305,Downtown,M,33.760680000000001,-84.395700000000005
200051568,2020-01-05,2020-01-05,1750,2020-01-05,1913,209,,,3861 ROSWELL RD NE,Evening Watch,18,LARCENY-FROM VEHICLE,0640,2305,North Buckhead,B,33.8596,-84.37979
200051850,2020-01-05,2020-01-05,1700,2020-01-05,2200,614,,203,699 ARGONNE AVE NE,Evening Watch,18,LARCENY-FROM VEHICLE,0640,2305,Midtown,E,33.773739999999997,-84.377570000000006
200051927,2020-01-05,2020-01-05,2305,2020-01-05,2309,613,,,1739 CHESHIRE BRIDGE RD NE,Morning Watch,,LARCENY-FROM VEHICLE,0640,2305,Morningside/Lenox Park,F,33.807479999999998,-84.365189999999998
200050693,2020-01-05,2020-01-05,0930,2020-01-05,0944,412,,,4465 CAMPBELLTON RD SW,Day Watch,24,LARCENY-NON VEHICLE,0630,2303,,P,33.697040000000001,-84.534620000000004
200050881,2020-01-05,2020-01-05,1100,2020-01-05,1200,204,,,1801 HOWELL MILL RD NW,Day Watch,8,LARCENY-NON VEHICLE,0630,2303,Berkeley Park,D,33.803879999999999,-84.412779999999998
200050986,2020-01-05,2020-01-05,1225,2020-01-05,1401,210,,,3393 PEACHTREE RD NE @LENOX MALL,Day Watch,8,LARCENY-NON VEHICLE,0630,2303,Lenox,B,33.846760000000003,-84.362120000000004
200051168,2020-01-05,2020-01-05,1500,2020-01-05,1530,511,,,29 PEACHTREE ST SW,Evening Watch,,LARCENY-NON VEHICLE,0630,2303,Downtown,M,33.753660000000004,-84.390469999999993
200051281,2020-01-05,2020-01-05,1628,2020-01-05,1631,107,,,2045 DONALD LEE HOLLOWELL PKWY NW,Evening Watch,7,LARCENY-NON VEHICLE,0630,2303,Grove Park,J,33.7774,-84.45214
200051386,2020-01-05,2020-01-05,1715,2020-01-05,1715,210,,,3393 PEACHTREE RD NE,Evening Watch,8,LARCENY-NON VEHICLE,0630,2303,Lenox,B,33.846760000000003,-84.362120000000004
200051731,2020-01-05,2020-01-05,2100,2020-01-05,2107,109,,,2615 DONALD LEE HOLLOWELL PKWY NW,Evening Watch,7,LARCENY-NON VEHICLE,0630,2303,Center Hill,J,33.776200000000003,-84.472359999999995
200051763,2020-01-05,2020-01-05,2141,2020-01-05,2156,609,,,1275 CAROLINE ST NE @TARGET - CAROLINE,Evening Watch,8,LARCENY-NON VEHICLE,0630,2303,Edgewood,O,33.756740000000001,-84.346190000000007
200042326,2020-01-05,2020-01-04,2235,2020-01-04,2235,414,,,3660 CAMP CREEK PKWY SW   ,Morning Watch,18,LARCENY-FROM VEHICLE,0640,2305,Princeton Lakes,P,33.654859999999999,-84.507869999999997
200051632,2020-01-05,2020-01-05,1200,2020-01-05,1920,306,,,2033 METROPOLITAN PKWY SW @STEWART-LAKEWOOD,Evening Watch,18,LARCENY-FROM VEHICLE,0650,2304,Sylvan Hills,X,33.699199999999998,-84.409459999999996
200051562,2020-01-05,2020-01-05,1830,2020-01-05,1845,210,,,573 MAIN ST,Evening Watch,21,LARCENY-NON VEHICLE,0670,2308,Lindbergh/Morosgo,B,33.82226,-84.368309999999994
200051671,2020-01-05,2020-01-05,2000,2020-01-05,2038,508,,,320 LUCKIE ST NW,Evening Watch,,LARCENY-NON VEHICLE,0670,2308,Downtown,M,33.763199999999998,-84.396370000000005
200051832,2020-01-05,2020-01-05,2230,2020-01-05,2235,211,,,3125 PIEDMONT RD NE,Morning Watch,21,LARCENY-NON VEHICLE,0670,2308,Peachtree Park,B,33.84169,-84.370270000000005
200051368,2020-01-05,2020-01-01,1820,2020-01-05,0515,206,,1202,3040 PEACHTREE RD NW,Evening Watch,26,LARCENY-NON VEHICLE,0690,2399,Peachtree Heights West,B,33.838290000000001,-84.380939999999995
200051821,2020-01-05,2020-01-05,0000,2020-01-05,2230,506,,,537 OLIVER ST NW,Evening Watch,,LARCENY-NON VEHICLE,0690,2399,English Avenue,L,33.769440000000003,-84.415229999999994
200050313,2020-01-05,2020-01-05,0245,2020-01-05,0250,303,,,700 GARIBALDI ST SW,Morning Watch,13,ROBBERY-PEDESTRIAN,0331,1205,Mechanicsville,V,33.735810000000001,-84.398899999999998
200060054,2020-01-05,2020-01-05,2230,2020-01-05,2310,507,,,204 WALKER STREET,Morning Watch,13,ROBBERY-PEDESTRIAN,0317,1299G,Castleberry Hill,M,33.748159999999999,-84.402979999999999
200050537,2020-01-05,2020-01-05,0700,2020-01-05,0707,405,,,2716 MARTIN L KING JR DR SW,Day Watch,23,AUTO THEFT,0710,2404,Harland Terrace,I,33.753950000000003,-84.476119999999995
200050677,2020-01-05,2020-01-05,0900,2020-01-05,0915,102,APT,104,805 MAGNOLIA WAY NW,Day Watch,20,AUTO THEFT,0710,2404,Vine City,L,33.758229999999998,-84.414050000000003
200050844,2020-01-05,2020-01-03,0500,2020-01-05,1130,313,,,3843 JONESBORO RD SE,Day Watch,23,AUTO THEFT,0710,2404,South River Gardens,Z,33.649329999999999,-84.366349999999997
200051057,2020-01-05,2020-01-05,1400,2020-01-05,1405,103,,,2429 BOLTON RD NW,Evening Watch,23,AUTO THEFT,0710,2404,Bolton,D,33.820650000000001,-84.455370000000002
200051136,2020-01-05,2020-01-04,2230,2020-01-05,1500,604,,,414 TODD ST SE,Evening Watch,13,AUTO THEFT,0710,2404,Sweet Auburn,M,33.751579999999997,-84.373689999999996
200051477,2020-01-05,2020-01-05,1810,2020-01-05,1819,404,,,533 WESTMEATH DR SW,Evening Watch,20,AUTO THEFT,0710,2404,Westview,T,33.740630000000003,-84.446240000000003
200051767,2020-01-05,2020-01-05,2140,2020-01-05,2143,206,,,3510 ROSWELL RD NW,Evening Watch,18,AUTO THEFT,0710,2404,South Tuxedo Park,B,33.850540000000002,-84.383369999999999
200051781,2020-01-05,2020-01-05,2145,2020-01-05,2147,202,,,3465 NORTHSIDE PKWY NW,Evening Watch,23,AUTO THEFT,0710,2404,Randall Mill,A,33.849580000000003,-84.42962
200051798,2020-01-05,2020-01-05,1500,2020-01-05,2200,613,,,877 BERKSHIRE RD NE,Morning Watch,20,AUTO THEFT,0710,2404,Morningside/Lenox Park,F,33.79974,-84.3583
200050580,2020-01-05,2020-01-05,0750,2020-01-05,0755,404,,,1732 WESTHAVEN DR SW,Day Watch,13,ROBBERY-PEDESTRIAN,0311,1212,Cascade Avenue/Road,S,33.732349999999997,-84.444540000000003
200050875,2020-01-05,2020-01-05,1150,2020-01-05,1200,504,,,950 MARIETTA ST NW,Day Watch,12,ROBBERY-COMMERCIAL,0324,1202L,Marietta Street Artery,E,33.776820000000001,-84.40822
200050063,2020-01-05,2020-01-05,0025,2020-01-05,0027,603,,,559 MORGAN ST NE,Morning Watch,20,AGG ASSAULT,0410,1314,Old Fourth Ward,M,33.768990000000002,-84.368939999999995
200050312,2020-01-05,2020-01-05,0250,2020-01-05,0250,501,,,1008 BRADY AVE NW,Morning Watch,18,AGG ASSAULT,0410,1314,Home Park,E,33.782249999999998,-84.413910000000001
200050948,2020-01-05,2019-12-30,1300,2019-12-30,1300,212,,1514,2470 CHESHIRE BRIDGE RD NE,Day Watch,26,AGG ASSAULT,0420,1315K,Lindridge/Martin Manor,F,33.822360000000003,-84.351730000000003
200051613,2020-01-05,2019-12-29,1500,2019-12-29,2359,601,,4,982 VIRGINIA AVE NE,Evening Watch,26,AGG ASSAULT,0440,1399,Virginia Highland,F,33.782530000000001,-84.355090000000004
200050111,2020-01-05,2020-01-04,1100,2020-01-05,0045,302,1,1120,765 MCDANIEL ST SW,Morning Watch,26,BURGLARY-RESIDENCE,0511,2202,Pittsburgh,V,33.733960000000003,-84.401769999999999
200050505,2020-01-05,2020-01-04,1000,2020-01-05,0500,305,,3722,178 MOURY AVE SW,Day Watch,26,BURGLARY-RESIDENCE,0511,2202,The Villages at Carver,Y,33.713470000000001,-84.390789999999996
200050507,2020-01-05,2020-01-05,0530,2020-01-05,0545,209,,,60 STRATFORD PL NE,Morning Watch,20,BURGLARY-RESIDENCE,0521,2204,North Buckhead,B,33.866779999999999,-84.359260000000006
200051230,2020-01-05,2019-12-19,1500,2020-01-05,1530,505,,,868 PENN AVE NE,Evening Watch,20,BURGLARY-RESIDENCE,0521,2204,Midtown,E,33.77843,-84.37876
200051826,2020-01-05,2020-01-05,0000,2020-01-05,2200,505,,3506,265 PONCE DE LEON AVE NE,Evening Watch,26,BURGLARY-RESIDENCE,0521,2204,Midtown,E,33.772480000000002,-84.378569999999996
200060312,2020-01-06,2020-01-03,0000,2020-01-06,0400,409,,,1588 BOULEVARD LORRAINE SW,Morning Watch,20,BURGLARY-RESIDENCE,0521,2204,Adams Park,R,33.71266,-84.460210000000004
200061256,2020-01-06,2020-01-03,1500,2020-01-06,1100,612,,,1573 VAN EPPS ST SE,Evening Watch,20,BURGLARY-RESIDENCE,0521,2204,East Atlanta,W,33.73686,-84.336449999999999
200061540,2020-01-06,2020-01-04,1200,2020-01-06,1500,606,,3205,390 STOVALL ST SE,Evening Watch,20,BURGLARY-RESIDENCE,0521,2204,Ormewood Park,W,33.743600000000001,-84.354290000000006
200060531,2020-01-06,2020-01-04,1700,2020-01-06,0900,408,,B-10,1829 CAMPBELLTON RD SW,Evening Watch,26,BURGLARY-NONRES,0512,2203,Venetian Hills,S,33.710000000000001,-84.448629999999994
200060433,2020-01-06,2020-01-05,2200,2020-01-06,0700,406,,,2846 MONICA CT SW,Unknown,20,BURGLARY-RESIDENCE,0511,2202,Peyton Forest,I,33.742730000000002,-84.481120000000004
200060482,2020-01-06,2019-11-22,1530,2020-01-06,0745,211,,4217,2323 PIEDMONT RD NE,Evening Watch,26,BURGLARY-RESIDENCE,0511,2202,Lindbergh/Morosgo,B,33.818249999999999,-84.366950000000003
200060395,2020-01-06,2020-01-06,0638,2020-01-06,0638,102,,,239 GRIFFIN ST NW,Day Watch,20,AGG ASSAULT,0430,1315,Vine City,L,33.761200000000002,-84.410899999999998
200060829,2020-01-06,2020-01-06,1040,2020-01-06,1100,510,APT,21507,112 COURTLAND ST NE,Day Watch,26,AGG ASSAULT,0430,1315,Downtown,M,33.757559999999998,-84.384339999999995
200061509,2020-01-06,2020-01-06,1100,2020-01-06,1655,112,,E,319 SKIPPER PL NW,Evening Watch,26,BURGLARY-RESIDENCE,0511,2202,Collier Heights,I,33.781469999999999,-84.491389999999996
200061705,2020-01-06,2020-01-06,0800,2020-01-06,1400,606,,3403,390 STOVALL ST SE,Evening Watch,20,BURGLARY-RESIDENCE,0511,2202,Ormewood Park,W,33.743600000000001,-84.354290000000006
200061716,2020-01-06,2020-01-06,0740,2020-01-06,1810,205,,517,1888 EMERY ST NW,Evening Watch,26,BURGLARY-RESIDENCE,0511,2202,Wildwood (NPU-C),C,33.807009999999998,-84.414439999999999
200062038,2020-01-06,2020-01-06,1830,2020-01-06,2219,504,,6011,950 MARIETTA ST NW,Evening Watch,26,BURGLARY-RESIDENCE,0511,2202,Marietta Street Artery,E,33.776890000000002,-84.408069999999995
200060915,2020-01-06,2020-01-05,0645,2020-01-06,1153,312,,,2750 ALTAVIEW DR SE,Evening Watch,26,AGG ASSAULT,0410,1314,Rosedale Heights,Z,33.679659999999998,-84.381500000000003
200061554,2020-01-06,2020-01-06,1700,2020-01-06,1715,305,,,543 BURROUGHS ST SE,Evening Watch,99,AGG ASSAULT,0410,1314,Chosewood Park,Y,33.717039999999997,-84.368930000000006
200061605,2020-01-06,2020-01-06,1630,2020-01-06,1740,102,,,70 JOSEPH E LOWERY BLVD NW,Evening Watch,31,AGG ASSAULT,0410,1314,Washington Park,K,33.75779,-84.417540000000002
200061638,2020-01-06,2020-01-06,1751,2020-01-06,1751,109,,A,827 OAK ST NW,Evening Watch,26,AGG ASSAULT,0410,1314,Center Hill,J,33.777799999999999,-84.463059999999999
200061835,2020-01-06,2020-01-06,1900,2020-01-06,2000,313,,,925 CONLEY RD SE ,Evening Watch,18,AGG ASSAULT,0410,1314,South River Gardens,Z,33.649839999999998,-84.359930000000006
200062118,2020-01-06,2020-01-06,2300,2020-01-06,2330,211,,,565 BROADVIEW PL NE,Morning Watch,13,ROBBERY-PEDESTRIAN,0311,1204,Lindbergh/Morosgo,B,33.821759999999998,-84.364919999999998
200061707,2020-01-06,2020-01-06,0000,2020-01-06,1825,109,,,785 PEYTON AVE NW,Evening Watch,99,HOMICIDE,0110,0911,Center Hill,J,33.77655,-84.467699999999994
200061319,2020-01-06,2020-01-06,1545,2020-01-06,1555,508,,,240 PEACHTREE ST NE,Evening Watch,2,ROBBERY-COMMERCIAL,0336,1211O,Downtown,M,33.760559999999998,-84.388350000000003
200060003,2020-01-06,2020-01-05,2230,2020-01-06,0001,506,,,800 W MARIETTA BLVD NW,Morning Watch,26,AUTO THEFT,0710,2404,Almond Park,G,33.783729999999998,-84.457939999999994
200060102,2020-01-06,2020-01-06,0054,2020-01-06,0105,611,,,202 CANDLER RD SE,Morning Watch,23,AUTO THEFT,0710,2404,East Lake,O,33.747540000000001,-84.291529999999995
200060208,2020-01-06,2020-01-06,0030,2020-01-06,0130,208,,,3242 PEACHTREE RD NE,Morning Watch,18,AUTO THEFT,0710,2404,Buckhead Forest,B,33.844250000000002,-84.373109999999997
200060474,2020-01-06,2020-01-06,0745,2020-01-06,0757,111,,,324 FAIRBURN RD NW,Day Watch,20,AUTO THEFT,0710,2404,Adamsville,H,33.764380000000003,-84.501300000000001
200060791,2020-01-06,2020-01-06,1055,2020-01-06,1055,303,,,733 GARIBALDI ST SW,Day Watch,20,AUTO THEFT,0710,2404,Mechanicsville,V,33.734940000000002,-84.399370000000005
200060887,2020-01-06,2019-12-23,1530,2020-01-05,1134,503,,,77 12TH ST NE,Day Watch,18,AUTO THEFT,0710,2404,Midtown,E,33.784239999999997,-84.384960000000007
200060958,2020-01-06,2020-01-04,2300,2020-01-06,1100,310,,,2580 MACON DR SE,Day Watch,20,AUTO THEFT,0710,2404,Browns Mill Park,Z,33.684010000000001,-84.38861
200061070,2020-01-06,2020-01-06,1314,2020-01-06,1314,110,,Q6,1033 HOLLYWOOD RD NW,Day Watch,18,AUTO THEFT,0710,2404,Almond Park,G,33.783079999999998,-84.458820000000003
200061723,2020-01-06,2020-01-06,1810,2020-01-06,1830,502,,,59 INMAN CIR NE,Evening Watch,20,AUTO THEFT,0710,2404,Ansley Park,E,33.792479999999998,-84.380830000000003
200060078,2020-01-06,2020-01-06,0050,2020-01-06,0058,501,,,608 14TH ST NW,Morning Watch,23,ROBBERY-COMMERCIAL,0322,1202K,Home Park,E,33.785780000000003,-84.407070000000004
200060717,2020-01-06,2020-01-02,1600,2020-01-06,1011,606,,,220 BILL KENNEDY WAY SE,Day Watch,,LARCENY-NON VEHICLE,0690,2399,Reynoldstown,N,33.744579999999999,-84.357510000000005
200060734,2020-01-06,2019-12-23,1100,2019-12-28,1600,402,,,1443 OGLETHORPE AVE SW,Evening Watch,99,LARCENY-NON VEHICLE,0690,2399,West End,T,33.737050000000004,-84.434820000000002
200060925,2020-01-06,2020-01-03,1500,2020-01-06,1130,403,,,1333 CAMPBELLTON RD SW,Unknown,20,LARCENY-NON VEHICLE,0690,2399,Venetian Hills,S,33.715580000000003,-84.431889999999996
200061193,2020-01-06,2020-01-04,1930,2020-01-05,1545,211,,157,2400 PARKLAND DR NE,Evening Watch,,LARCENY-NON VEHICLE,0690,2399,Lindbergh/Morosgo,B,33.819870000000002,-84.365679999999998
200061512,2020-01-06,2020-01-06,1615,2020-01-06,1658,607,,,1345 BENTEEN PARK DR SE,Evening Watch,20,LARCENY-NON VEHICLE,0690,2399,Benteen Park,W,33.71537,-84.361609999999999
200061826,2020-01-06,2020-01-06,1800,2020-01-06,1845,206,,,540 PHARR RD NE,Evening Watch,14,LARCENY-NON VEHICLE,0690,2399,Buckhead Village,B,33.837069999999997,-84.370180000000005
200060894,2020-01-06,2019-01-04,1700,2020-01-06,0900,501,,2105,400 17TH ST NW,Evening Watch,18,LARCENY-NON VEHICLE,0660,2317,Atlantic Station,E,33.789589999999997,-84.401650000000004
200061262,2020-01-06,2019-12-16,1200,2020-01-06,1500,505,,,708 SPRING ST NW,Evening Watch,26,LARCENY-NON VEHICLE,0660,2317,Midtown,E,33.77402,-84.389200000000002
200060308,2020-01-06,2020-01-05,2230,2020-01-06,0400,201,,1503,3201 DOWNWOOD CIR NW,Morning Watch,26,LARCENY-NON VEHICLE,0670,2308,,C,33.841329999999999,-84.426029999999997
200060748,2020-01-06,2020-01-05,0100,2020-01-06,0800,211,,9110,740 SIDNEY MARCUS BLVD NE,Morning Watch,26,LARCENY-NON VEHICLE,0670,2308,Lindbergh/Morosgo,B,33.825980000000001,-84.363349999999997
200060759,2020-01-06,2020-01-05,2300,2020-01-06,1000,509,,817,530 PIEDMONT AVE NE,Morning Watch,26,LARCENY-NON VEHICLE,0670,2308,Downtown,M,33.769089999999998,-84.382080000000002
200060877,2020-01-06,2020-01-05,2200,2020-01-06,1000,405,,,364 BETSY AVE SW,Day Watch,20,LARCENY-NON VEHICLE,0670,2308,Florida Heights,I,33.74577,-84.457849999999993
200060904,2020-01-06,2020-01-06,0030,2020-01-06,0600,105,,,1582 EZRA CHURCH DR NW,Morning Watch,20,LARCENY-FROM VEHICLE,0650,2304,West Lake,J,33.757429999999999,-84.439840000000004
200061407,2020-01-06,2020-01-03,1830,2020-01-06,1000,606,,,1088 MEMORIAL DR SE,Evening Watch,,LARCENY-FROM VEHICLE,0650,2304,Reynoldstown,N,33.747349999999997,-84.351799999999997
200061001,2020-01-06,2020-01-05,1600,2020-01-06,1236,309,,,2610 METROPOLITAN PKWY SW,Evening Watch,12,LARCENY-NON VEHICLE,0680,2307,Perkerson,X,33.683329999999998,-84.407340000000005
200060165,2020-01-06,2020-01-06,0145,2020-01-06,0156,109,,,980 HOLLYWOOD RD NW,Morning Watch,17,LARCENY-NON VEHICLE,0630,2303,Grove Park,J,33.781640000000003,-84.456379999999996
200060835,2020-01-06,2020-01-06,1050,2020-01-06,1400,210,,,855 E PACES FERRY RD NE @LENOX STATION,Day Watch,24,LARCENY-NON VEHICLE,0630,2303,Lenox,B,33.844900000000003,-84.359070000000003
200060974,2020-01-06,2019-12-31,1310,2019-12-31,1310,208,,,3500 PEACHTREE RD NE @PHIPPS PLAZA,Day Watch,8,LARCENY-NON VEHICLE,0630,2303,North Buckhead,B,33.853020000000001,-84.362780000000001
200061226,2020-01-06,2020-01-06,1320,2020-01-06,1335,407,,,3330 MARTIN L KING JR DR SW @TEXACO,Day Watch,12,LARCENY-NON VEHICLE,0630,2303,Adamsville,H,33.753920000000001,-84.49736
200061647,2020-01-06,2020-01-06,1754,2020-01-06,1850,606,,,905 MEMORIAL DR SE,Evening Watch,12,LARCENY-NON VEHICLE,0630,2303,Reynoldstown,N,33.74579,-84.357280000000003
200061681,2020-01-06,2020-01-06,1800,2020-01-06,1805,210,,,3393 PEACHTREE RD NE @LENOX MALL,Evening Watch,99,LARCENY-NON VEHICLE,0630,2303,Lenox,B,33.846760000000003,-84.362120000000004
200061775,2020-01-06,2020-01-06,1850,2020-01-06,1903,102,,,835 MARTIN L KING JR DR NW,Evening Watch,8,LARCENY-NON VEHICLE,0630,2303,Vine City,L,33.755040000000001,-84.414569999999998
200061906,2020-01-06,2020-01-06,2030,2020-01-06,2030,402,,,1117 LEE ST SW,Evening Watch,23,LARCENY-NON VEHICLE,0630,2303,Oakland City,S,33.724589999999999,-84.42107
200061993,2020-01-06,2020-01-06,2135,2020-01-06,2135,603,,,455 NORTH AVE NE,Evening Watch,24,LARCENY-NON VEHICLE,0630,2303,Old Fourth Ward,M,33.770659999999999,-84.372249999999994
200060132,2020-01-06,2020-01-05,2300,2020-01-06,0140,510,,,96 JESSE HILL JR DR NE ,Morning Watch,13,LARCENY-FROM VEHICLE,0640,2305,Downtown,M,33.756889999999999,-84.380330000000001
200060405,2020-01-06,2020-01-06,0640,2020-01-06,0649,111,,,3221 MARTIN L KING JR DR NW,Day Watch,23,LARCENY-FROM VEHICLE,0640,2305,,I,33.752839999999999,-84.492559999999997
200060805,2020-01-06,2020-01-02,1830,2020-01-06,1100,505,,,782 PEACHTREE ST NE,Evening Watch,18,LARCENY-FROM VEHICLE,0640,2305,Midtown,E,33.775849999999998,-84.385050000000007
200060846,2020-01-06,2020-01-06,0945,2020-01-06,1110,306,,,500 DECKNER AVE SW @EMMA MILLICAN PARK,Day Watch,,LARCENY-FROM VEHICLE,0640,2305,Sylvan Hills,X,33.714280000000002,-84.403999999999996
200060952,2020-01-06,2020-01-03,0300,2020-01-04,1600,212,,,2050 LIDDELL DR NE @FUTOS,Day Watch,18,LARCENY-FROM VEHICLE,0640,2305,Morningside/Lenox Park,F,33.810560000000002,-84.361609999999999
200061006,2020-01-06,2020-01-04,1800,2020-01-06,1240,211,,1411,2399 PARKLAND DR NE,Day Watch,18,LARCENY-FROM VEHICLE,0640,2305,Lindbergh/Morosgo,B,33.820030000000003,-84.364890000000003
200061086,2020-01-06,2020-01-06,0810,2020-01-06,1315,502,,,500 10TH ST NE @BELTLINE BUSINESS,Day Watch,99,LARCENY-FROM VEHICLE,0640,2305,,E,33.782229999999998,-84.369219999999999
200061398,2020-01-06,2020-01-06,0930,2020-01-06,1615,508,,,150 CARNEGIE WAY NW,Evening Watch,18,LARCENY-FROM VEHICLE,0640,2305,Downtown,M,33.758319999999998,-84.389049999999997
200061410,2020-01-06,2020-01-06,0300,2020-01-06,2200,608,,,331 ELMIRA PL NE,Evening Watch,99,LARCENY-FROM VEHICLE,0640,2305,Candler Park,N,33.763359999999999,-84.346599999999995
200061456,2020-01-06,2020-01-06,1400,2020-01-06,1635,610,,,57 WARREN ST SE,Evening Watch,13,LARCENY-FROM VEHICLE,0640,2305,Kirkwood,O,33.751649999999998,-84.326549999999997
200061466,2020-01-06,2020-01-01,1300,2020-01-02,1000,606,,846,777 MEMORIAL DR SE,Evening Watch,,LARCENY-FROM VEHICLE,0640,2305,Reynoldstown,N,33.746540000000003,-84.361360000000005
200061476,2020-01-06,2020-01-06,1620,2020-01-06,1640,605,,,563 MEMORIAL DR SE,Evening Watch,21,LARCENY-FROM VEHICLE,0640,2305,Grant Park,W,33.746400000000001,-84.369110000000006
200061630,2020-01-06,2020-01-06,1700,2020-01-06,1745,609,,,1275 CAROLINE ST NE ,Evening Watch,18,LARCENY-FROM VEHICLE,0640,2305,Edgewood,O,33.756740000000001,-84.346190000000007
200061666,2020-01-06,2020-01-06,1715,2020-01-06,1815,304,,,474 MARTIN ST SE,Evening Watch,13,LARCENY-FROM VEHICLE,0640,2305,Summerhill,V,33.741570000000003,-84.384039999999999
200061668,2020-01-06,2019-12-30,1200,2019-12-31,1200,304,,8,1053 LINAM ST SE,Evening Watch,18,LARCENY-FROM VEHICLE,0640,2305,Peoplestown,V,33.725790000000003,-84.386250000000004
200061683,2020-01-06,2020-01-06,1000,2020-01-06,1820,501,,,930 HOWELL MILL RD NW,Evening Watch,18,LARCENY-FROM VEHICLE,0640,2305,Home Park,E,33.779870000000003,-84.410629999999998
200061694,2020-01-06,2020-01-05,2000,2020-01-06,0800,210,,B,6 PLANTATION DR NE,Evening Watch,18,LARCENY-FROM VEHICLE,0640,2305,Pine Hills,B,33.836089999999999,-84.357569999999996
200061709,2020-01-06,2020-01-06,0600,2020-01-06,1800,503,,,22 14TH ST NW,Evening Watch,18,LARCENY-FROM VEHICLE,0640,2305,Midtown,E,33.786450000000002,-84.388390000000001
200061740,2020-01-06,2020-01-06,1600,2020-01-06,1900,602,,,240 N HIGHLAND AVE NE @PARISH FOODS,Evening Watch,18,LARCENY-FROM VEHICLE,0640,2305,Inman Park,N,33.76191,-84.360389999999995
200061769,2020-01-06,2020-01-06,1830,2020-01-06,1850,602,,1A,112 KROG ST NE,Evening Watch,18,LARCENY-FROM VEHICLE,0640,2305,Inman Park,N,33.756720000000001,-84.364459999999994
200061816,2020-01-06,2020-01-01,1400,2020-01-01,1400,613,,283,1845 PIEDMONT AVE NE,Evening Watch,,LARCENY-FROM VEHICLE,0640,2305,Morningside/Lenox Park,F,33.805669999999999,-84.36712
200061867,2020-01-06,2020-01-06,1730,2020-01-06,2000,511,,,105 MARTIN L KING JR DR SW,Evening Watch,18,LARCENY-FROM VEHICLE,0640,2305,Downtown,M,33.751719999999999,-84.391329999999996
200061902,2020-01-06,2020-01-06,1955,2020-01-06,2005,211,,,3073 PIEDMONT RD NE,Evening Watch,18,LARCENY-FROM VEHICLE,0640,2305,Peachtree Park,B,33.839390000000002,-84.368759999999995
200061937,2020-01-06,2020-01-06,1804,2020-01-06,2000,201,,,1160 MOORES MILL RD NW,Evening Watch,18,LARCENY-FROM VEHICLE,0640,2305,Brandon,C,33.831330000000001,-84.424980000000005
200061985,2020-01-06,2020-01-06,1920,2020-01-06,2120,209,,,4475 ROSWELL RD NE,Evening Watch,18,LARCENY-FROM VEHICLE,0640,2305,North Buckhead,B,33.877279999999999,-84.379490000000004
200062035,2020-01-06,2020-01-06,2200,2020-01-06,2215,309,,,757 CLEVELAND AVE SW,Morning Watch,23,LARCENY-FROM VEHICLE,0640,2305,Perkerson,X,33.682319999999997,-84.414169999999999
200062093,2020-01-06,2020-01-06,2250,2020-01-06,2311,205,,,1892 HOWELL MILL RD NW,Morning Watch,23,LARCENY-FROM VEHICLE,0640,2305,Wildwood (NPU-C),C,33.806730000000002,-84.413160000000005
200062133,2020-01-06,2020-01-06,2349,2020-01-07,0024,307,,,1754 RICHMOND CIR SE,Morning Watch,26,LARCENY-FROM VEHICLE,0640,2305,Lakewood Heights,Y,33.706980000000001,-84.374499999999998
200070073,2020-01-07,2020-01-06,1600,2020-01-07,0045,501,,,1005 HEMPHILL AVE NW,Evening Watch,18,LARCENY-FROM VEHICLE,0640,2305,Home Park,E,33.782200000000003,-84.404380000000003
200070313,2020-01-07,2020-01-07,0330,2020-01-07,0400,602,,,725 PONCE DE LEON AVE NE ,Morning Watch,18,LARCENY-FROM VEHICLE,0640,2305,Poncey-Highland,N,33.773429999999998,-84.363510000000005
200070435,2020-01-07,2020-01-06,1830,2020-01-07,0722,505,,,240 NORTH AVE NE,Day Watch,18,LARCENY-FROM VEHICLE,0640,2305,Midtown,E,33.771340000000002,-84.379320000000007
200070485,2020-01-07,2020-01-06,2300,2020-01-07,0730,204,,,1391 COLLIER RD NW,Morning Watch,18,LARCENY-FROM VEHICLE,0640,2305,Underwood Hills,D,33.811639999999997,-84.435469999999995
200070502,2020-01-07,2019-01-06,1700,2020-01-07,0740,505,,1441,811 JUNIPER ST NE,Morning Watch,18,LARCENY-FROM VEHICLE,0640,2305,Midtown,E,33.77666,-84.38279
200070541,2020-01-07,2020-01-06,2100,2020-01-07,0715,505,,,751 PIEDMONT AVE NE,Morning Watch,18,LARCENY-FROM VEHICLE,0640,2305,Midtown,E,33.775019999999998,-84.381050000000002
200070559,2020-01-07,2020-01-06,2100,2020-01-07,0828,614,,9,890 GLENDALE TER NE,Day Watch,18,LARCENY-FROM VEHICLE,0640,2305,Midtown,E,33.779249999999998,-84.376530000000002
200070592,2020-01-07,2020-01-06,0700,2020-01-07,0847,308,,,2348 LEILA LN SE,Day Watch,20,LARCENY-FROM VEHICLE,0640,2305,Leila Valley,Z,33.689929999999997,-84.354759999999999
200070626,2020-01-07,2020-01-06,1800,2020-01-07,0800,613,,,1142 MORNINGSIDE PL NE,Day Watch,18,LARCENY-FROM VEHICLE,0640,2305,Morningside/Lenox Park,F,33.806519999999999,-84.354590000000002
200070840,2020-01-07,2020-01-06,2342,2020-01-07,1039,407,,3,3620 GINNIS CT SW,Morning Watch,20,LARCENY-FROM VEHICLE,0640,2305,Fairburn Mays,H,33.731459999999998,-84.511920000000003
200070866,2020-01-07,2020-01-07,1049,2020-01-07,1205,303,,,296 CRUMLEY ST SW,Day Watch,26,LARCENY-FROM VEHICLE,0640,2305,Mechanicsville,V,33.739409999999999,-84.398060000000001
200070948,2020-01-07,2020-01-07,1100,2020-01-07,1125,110,,2110,921 WESTMORELAND CIR NW,Day Watch,18,LARCENY-FROM VEHICLE,0640,2305,West Highlands,G,33.790089999999999,-84.449690000000004
200071219,2020-01-07,2020-01-06,2300,2020-01-07,0200,607,,,650 HAMILTON AVE SE,Day Watch,29,LARCENY-FROM VEHICLE,0640,2305,Boulevard Heights,W,33.726219999999998,-84.366699999999994
200071343,2020-01-07,2019-12-31,2330,2020-01-01,0200,506,,,625 JETT ST NW,Morning Watch,18,LARCENY-FROM VEHICLE,0640,2305,English Avenue,L,33.767409999999998,-84.407929999999993
200071750,2020-01-07,2020-01-07,1715,2020-01-07,1726,103,,,2429 BOLTON RD NW,Evening Watch,23,LARCENY-FROM VEHICLE,0640,2305,Bolton,D,33.820650000000001,-84.455370000000002
200071838,2020-01-07,2020-01-07,1740,2020-01-07,1755,103,,,1455 ELLSWORTH INDUSTRIAL BLVD NW,Evening Watch,24,LARCENY-FROM VEHICLE,0640,2305,Blandtown,D,33.795789999999997,-84.425749999999994
200072013,2020-01-07,2020-01-07,1845,2020-01-07,1900,604,,,654 AUBURN AVE NE,Evening Watch,,LARCENY-FROM VEHICLE,0640,2305,Old Fourth Ward,M,33.757019999999997,-84.366470000000007
200072086,2020-01-07,2020-01-07,1200,2020-01-07,2000,512,,,105  MARTIN L KING JR DR SW,Evening Watch,18,LARCENY-FROM VEHICLE,0640,2305,Downtown,M,33.751519999999999,-84.39076
200072113,2020-01-07,2020-01-07,1955,2020-01-07,2005,412,,,4465 CAMPBELLTON RD SW,Evening Watch,18,LARCENY-FROM VEHICLE,0640,2305,,P,33.697040000000001,-84.534620000000004
200072118,2020-01-07,2020-01-07,0700,2020-01-07,2020,104,,520,955 FOUNDERS DR SW,Evening Watch,18,LARCENY-FROM VEHICLE,0640,2305,Harris Chiles,T,33.744590000000002,-84.419880000000006
200072150,2020-01-07,2020-01-07,1930,2020-01-07,2045,501,,,1099 HEMPHILL AVE NW,Evening Watch,18,LARCENY-FROM VEHICLE,0640,2305,Home Park,E,33.7849,-84.405820000000006
200072184,2020-01-07,2020-01-07,1955,2020-01-07,2105,501,,,349 14TH ST NW,Evening Watch,18,LARCENY-FROM VEHICLE,0640,2305,Home Park,E,33.786369999999998,-84.39837
200072198,2020-01-07,2020-01-07,2040,2020-01-07,2107,509,,,396 PIEDMONT AVE NE,Evening Watch,18,LARCENY-FROM VEHICLE,0640,2305,Downtown,M,33.76491,-84.382599999999996
200072202,2020-01-07,2020-01-07,1936,2020-01-07,2109,601,,,1036 VANCE AVE NE,Evening Watch,,LARCENY-FROM VEHICLE,0640,2305,Virginia Highland,F,33.782899999999998,-84.356009999999998
200072209,2020-01-07,2020-01-07,1858,2020-01-07,2040,503,,1607,665 8TH ST NW,Evening Watch,18,LARCENY-FROM VEHICLE,0640,2305,Home Park,E,33.779739999999997,-84.409009999999995
200072211,2020-01-07,2020-01-07,2110,2020-01-07,2116,601,,,782 PONCE DE LEON AVE NE,Evening Watch,18,LARCENY-FROM VEHICLE,0640,2305,Virginia Highland,F,33.774120000000003,-84.361789999999999
200072260,2020-01-07,2020-01-07,2030,2020-01-07,2150,604,,,591 EDGEWOOD AVE SE,Evening Watch,18,LARCENY-FROM VEHICLE,0640,2305,Old Fourth Ward,M,33.753979999999999,-84.368039999999993
200072340,2020-01-07,2020-01-07,2000,2020-01-07,2330,601,6,,549 AMSTERDAM AVE NE,Evening Watch,18,LARCENY-FROM VEHICLE,0640,2305,Virginia Highland,F,33.787880000000001,-84.369039999999998
200070138,2020-01-07,2020-01-07,0130,2020-01-07,0135,110,,,1820 HOLLYWOOD RD NW,Morning Watch,7,LARCENY-NON VEHICLE,0630,2303,Scotts Crossing,G,33.804940000000002,-84.47054
200070844,2020-01-07,2020-01-07,1000,2020-01-07,1041,402,,,1450 DONNELLY AVE SW,Day Watch,23,LARCENY-NON VEHICLE,0630,2303,West End,T,33.737720000000003,-84.434790000000007
200071695,2020-01-07,2020-01-07,1702,2020-01-07,1702,307,,,1723 LAKEWOOD AVE SE,Unknown,8,LARCENY-NON VEHICLE,0630,2303,Lakewood Heights,Y,33.706780000000002,-84.380309999999994
200071326,2020-01-07,2019-12-31,0145,2020-01-07,1437,512,,,203 FORSYTH ST SW,Morning Watch,18,LARCENY-NON VEHICLE,0620,2302,Downtown,M,33.749290000000002,-84.396839999999997
200070736,2020-01-07,2020-01-06,1200,2020-01-07,1640,305,,,1463 PRYOR RD SW,Day Watch,18,LARCENY-FROM VEHICLE,0650,2304,High Point,Y,33.714779999999998,-84.394130000000004
200071123,2020-01-07,2020-01-03,0000,2020-01-07,1256,309,,1010,2611 SPRINGDALE RD SW,Morning Watch,99,LARCENY-FROM VEHICLE,0650,2304,Perkerson,X,33.68394,-84.415210000000002
200071157,2020-01-07,2019-12-31,0000,2020-01-07,1330,207,,1829,40 PEACHTREE VALLEY RD NE,Day Watch,26,LARCENY-NON VEHICLE,0670,2308,,E,33.810969999999998,-84.391540000000006
200071202,2020-01-07,2019-12-19,1200,2019-12-23,1200,606,,,107 HOLIDAY AVE NE,Evening Watch,20,LARCENY-NON VEHICLE,0670,2308,Reynoldstown,N,33.756520000000002,-84.350160000000002
200071362,2020-01-07,2020-01-06,2000,2020-01-07,1400,108,,,246 AARON ST NW,Evening Watch,20,LARCENY-NON VEHICLE,0670,2308,Penelope Neighbors,J,33.753959999999999,-84.451980000000006
200071768,2020-01-07,2020-01-06,1630,2020-01-07,0830,508,,,54 BROAD ST NW,Evening Watch,21,LARCENY-NON VEHICLE,0670,2308,Downtown,M,33.755600000000001,-84.389719999999997
200071798,2020-01-07,2020-01-07,1730,2020-01-07,1743,508,,,87 WALTON ST NW @VEW WALTON,Evening Watch,14,LARCENY-NON VEHICLE,0670,2308,Downtown,M,33.756889999999999,-84.391120000000001
200071312,2020-01-07,2020-01-06,2000,2020-01-07,1200,614,,,413 4TH ST NE,Evening Watch,20,LARCENY-NON VEHICLE,0660,2317,Midtown,E,33.7742,-84.373710000000003
200071400,2020-01-07,2020-01-02,1200,2020-01-06,1200,505,,5,708 ARGONNE AVE NE,Day Watch,20,LARCENY-NON VEHICLE,0660,2317,Midtown,E,33.773960000000002,-84.377790000000005
200070198,2020-01-07,2020-01-07,0125,2020-01-07,0230,212,,,923 CARDOVA DR NE,Morning Watch,20,LARCENY-NON VEHICLE,0690,2399,Lindridge/Martin Manor,F,33.816429999999997,-84.35754
200070429,2020-01-07,2020-01-06,1800,2020-01-06,1830,512,,,232 FORSYTH ST SW @GREYHOUND BUS DEPOT,Evening Watch,99,LARCENY-NON VEHICLE,0690,2399,Downtown,M,33.748519999999999,-84.396360000000001
200070613,2020-01-07,2020-01-06,1730,2020-01-06,2300,410,,,2400 CAMPBELLTON RD SW,Unknown,26,LARCENY-NON VEHICLE,0690,2399,Campbellton Road,R,33.703479999999999,-84.466440000000006
200070677,2020-01-07,2020-01-06,1500,2020-01-07,0800,411,,Q15,3200 STONE RD SW,Evening Watch,20,LARCENY-NON VEHICLE,0690,2399,Greenbriar,R,33.669699999999999,-84.494029999999995
200070766,2020-01-07,2020-01-07,0600,2020-01-07,0600,312,,,3205 BELFORT RD SE,Day Watch,20,LARCENY-NON VEHICLE,0690,2399,Orchard Knob,Z,33.667639999999999,-84.377300000000005
200071240,2020-01-07,2020-01-07,0250,2020-01-07,0342,207,,,400 BISHOP ST NW,Evening Watch,6,LARCENY-NON VEHICLE,0690,2399,Loring Heights,E,33.79363,-84.400390000000002
200071561,2020-01-07,2020-01-07,0600,2020-01-07,1600,309,,9,2585 BEELER DR SW,Evening Watch,26,LARCENY-NON VEHICLE,0690,2399,Perkerson,X,33.684100000000001,-84.401200000000003
200071708,2020-01-07,2020-01-06,1600,2020-01-07,1000,307,,,44 LETHEA ST SE,Evening Watch,20,LARCENY-NON VEHICLE,0690,2399,Lakewood Heights,Y,33.710459999999998,-84.378690000000006
200071790,2020-01-07,2020-01-07,0730,2020-01-07,1415,612,,,1576 MCPHERSON AVE SE,Day Watch,20,LARCENY-NON VEHICLE,0690,2399,East Atlanta,W,33.744160000000001,-84.336070000000007
200071869,2020-01-07,2020-01-07,1800,2020-01-07,1810,106,,,2213 PARKVIEW AVENUE,Evening Watch,13,LARCENY-NON VEHICLE,0690,2399,Bolton,D,33.816879999999998,-84.464410000000001
200071200,2020-01-07,2020-01-07,1300,2020-01-07,1333,511,,,55 PEACHTREE ST SW,Day Watch,13,LARCENY-NON VEHICLE,0620,2302,Downtown,M,33.753039999999999,-84.391490000000005
200070307,2020-01-07,2020-01-07,0400,2020-01-07,0417,307,,,68 ADAIR AVE SE,Morning Watch,20,AUTO THEFT,0710,2404,Lakewood Heights,Y,33.706539999999997,-84.386030000000005
200070381,2020-01-07,2020-01-06,2130,2020-01-07,0600,412,H,H2,3909 CAMPBELLTON RD SW,Morning Watch,18,AUTO THEFT,0710,2404,Kings Forest,P,33.692399999999999,-84.516369999999995
200070393,2020-01-07,2020-01-06,2233,2020-01-06,2245,413,,,2550 FAIRBURN RD SW,Morning Watch,5,AUTO THEFT,0710,2404,Fairburn Tell,P,33.684159999999999,-84.511840000000007
200070402,2020-01-07,2020-01-06,2200,2020-01-07,0630,306,,,989 BYRON DR SW,Day Watch,20,AUTO THEFT,0710,2404,Sylvan Hills,X,33.713050000000003,-84.420879999999997
200070413,2020-01-07,2020-01-07,0643,2020-01-07,0643,301,,,444 ERIN AVE SW,Day Watch,20,AUTO THEFT,0710,2404,Capitol View Manor,X,33.718980000000002,-84.402879999999996
200071161,2020-01-07,2020-01-06,2020,2020-01-06,2023,305,,,580 MCDONOUGH BLVD SE,Day Watch,23,AUTO THEFT,0710,2404,Chosewood Park,Y,33.713920000000002,-84.368989999999997
200071676,2020-01-07,2020-01-06,2030,2020-01-07,1654,310,,,I-75-85 NB EXPY SW / ARTHUR LANGFORD EB PKWY SW,Evening Watch,13,AUTO THEFT,0710,2404,Polar Rock,Z,33.697040000000001,-84.404690000000002
200071926,2020-01-07,2020-01-03,0300,2020-01-06,2130,207,,,1459 MECASLIN ST NW,Unknown,,AUTO THEFT,0710,2404,Loring Heights,E,33.795340000000003,-84.398809999999997
200071357,2020-01-07,2020-01-07,1451,2020-01-07,1451,402,,,1117 LEE ST SW,Evening Watch,23,ROBBERY-PEDESTRIAN,0311,1204,Oakland City,S,33.724589999999999,-84.42107
200070759,2020-01-07,2020-01-06,2100,2020-01-07,1001,614,,4,746 MONROE DR NE,Day Watch,18,AUTO THEFT,0730,2434,Midtown,E,33.775080000000003,-84.370990000000006
200071253,2020-01-07,2020-01-06,2300,2020-01-07,1300,105,,,EZRA CHURCH DR NW / W LAKE AVE NW,Evening Watch,6,AUTO THEFT,0730,2434,West Lake,J,33.761189999999999,-84.442210000000003
200070048,2020-01-07,2020-01-06,2330,2020-01-07,0000,110,,7102,1709 WILLMA DR NW,Morning Watch,,AGG ASSAULT,0410,1314,West Highlands,G,33.79186,-84.447209999999998
200070243,2020-01-07,2020-01-07,0300,2020-01-07,0307,207,,,I-75 SB EXPY NW / DEERING RD NW,Morning Watch,13,AGG ASSAULT,0410,1314,Loring Heights,E,33.801810000000003,-84.4071
200070693,2020-01-07,2020-01-07,0930,2020-01-07,0930,410,,,2069 BENT CREEK WAY SW,Day Watch,26,AGG ASSAULT,0410,1314,Campbellton Road,R,33.6999,-84.46508
200071291,2020-01-07,2020-01-07,1417,2020-01-07,1417,309,,,2685 METROPOLITAN PKWY SW,Evening Watch,8,AGG ASSAULT,0410,1314,Perkerson,X,33.682740000000003,-84.409019999999998
200071831,2020-01-07,2020-01-07,1720,2020-01-07,1750,210,,,41 LENOX POINTE NE,Unknown,13,AGG ASSAULT,0410,1314,Pine Hills,B,33.826180000000001,-84.354079999999996
200071851,2020-01-07,2020-01-07,1800,2020-01-07,1807,103,,,1094 HUFF RD,Evening Watch,18,AGG ASSAULT,0410,1314,Blandtown,D,33.788589999999999,-84.424009999999996
200070710,2020-01-07,2020-01-06,2100,2020-01-07,0900,109,,,656 CEDAR AVE NW,Day Watch,20,BURGLARY-RESIDENCE,0511,2202,Center Hill,J,33.772950000000002,-84.465900000000005
200070789,2020-01-07,2020-01-06,1600,2020-01-07,1010,105,,,988 MAYSON TURNER RD NW,Morning Watch,20,BURGLARY-RESIDENCE,0511,2202,Washington Park,K,33.76003,-84.41919
200072115,2020-01-07,2020-01-07,0900,2020-01-07,1830,310,,,72 FINCH DR SE,Evening Watch,20,BURGLARY-RESIDENCE,0511,2202,Swallow Circle/Baywood,Z,33.695270000000001,-84.386099999999999
200070890,2020-01-07,2020-01-06,0750,2020-01-06,0800,510,,,10 PARK PL NE,Day Watch,5,AGG ASSAULT,0430,1315,Downtown,M,33.754919999999998,-84.388419999999996
200072256,2020-01-07,2020-01-07,2115,2020-01-07,2140,107,,,667 S EUGENIA PL NW,Evening Watch,20,AGG ASSAULT,0430,1315,Grove Park,J,33.772309999999997,-84.453940000000003
200070880,2020-01-07,2020-01-07,0000,2020-01-07,1000,212,,,2345 CHESHIRE BRIDGE RD NE,Morning Watch,21,BURGLARY-NONRES,0512,2203,Lindridge/Martin Manor,F,33.81906,-84.351299999999995
200071242,2020-01-07,2020-01-05,1200,2020-01-06,1200,505,,,719 PENN AVE NE,Morning Watch,20,BURGLARY-NONRES,0522,2205,Midtown,E,33.774250000000002,-84.378579999999999
200072338,2020-01-07,2020-01-07,2313,2020-01-07,2315,607,,,1210 LYNDALE DR SE,Morning Watch,20,BURGLARY-RESIDENCE,0531,2202A,,,33.727849999999997,-84.348320000000001
200081189,2020-01-08,2020-01-08,0000,2020-01-08,1428,108,,,2211 PANSY ST NW,Evening Watch,20,BURGLARY-RESIDENCE,0531,2202A,Dixie Hills,J,33.758069999999996,-84.459940000000003
200080577,2020-01-08,2020-01-07,1928,2020-01-08,0846,611,,,2960 ALSTON DR SE,Day Watch,19,BURGLARY-NONRES,0512,2203,East Lake,O,33.74492,-84.290139999999994
200080591,2020-01-08,2020-01-07,1900,2020-01-08,0830,409,,,2193 CASCADE RD SW,Morning Watch,5,BURGLARY-NONRES,0512,2203,Cascade Avenue/Road,S,33.7224,-84.46011
200080600,2020-01-08,2020-01-07,0930,2020-01-08,0857,502,,,268 WESTMINSTER DR NE,Day Watch,19,BURGLARY-NONRES,0512,2203,Midtown,E,33.79392,-84.370999999999995
200080628,2020-01-08,2020-01-08,0257,2020-01-08,0305,508,,,76 TED TURNER DR NW,Morning Watch,21,BURGLARY-NONRES,0512,2203,Downtown,M,33.757179999999998,-84.392539999999997
200081801,2020-01-08,2020-01-08,1902,2020-01-08,1930,102,APT,1306,870 MAYSON TURNER RD NW,Evening Watch,26,BURGLARY-NONRES,0512,2203,Vine City,L,33.756,-84.416290000000004
200080679,2020-01-08,2020-01-07,1600,2020-01-08,0800,304,,,760 TERRY ST SE,Day Watch,20,BURGLARY-RESIDENCE,0521,2204,Summerhill,V,33.733899999999998,-84.384730000000005
200081025,2020-01-08,2020-01-03,1200,2020-01-04,1200,112,,,2594 BAKER RIDGE DR NW,Day Watch,20,BURGLARY-RESIDENCE,0521,2204,Collier Heights,I,33.770009999999999,-84.474080000000001
200081167,2020-01-08,2020-01-08,1250,2020-01-08,1345,509,,1901,250 PIEDMONT AVE NE,Evening Watch,,BURGLARY-RESIDENCE,0521,2204,Downtown,M,33.76126,-84.382230000000007
200060800,2020-01-08,2019-12-29,1700,2020-01-06,0950,606,,,777 MEMORIAL DR SE,Day Watch,26,BURGLARY-RESIDENCE,0511,2202,Reynoldstown,N,33.746290000000002,-84.360370000000003
200080359,2020-01-08,2020-01-08,0500,2020-01-08,0510,510,,,80 JESSE HILL JR DR,Morning Watch,28,AGG ASSAULT,0430,1315,Downtown,M,33.75168,-84.381979999999999
200080885,2020-01-08,2020-01-08,1115,2020-01-08,1145,308,,,818 LEE ANDREWS AVE SE,Day Watch,20,BURGLARY-RESIDENCE,0511,2202,Norwood Manor,Z,33.698140000000002,-84.362729999999999
200081315,2020-01-08,2019-01-05,2100,2020-01-08,1500,311,,,2891 4TH ST SW,Evening Watch,20,BURGLARY-RESIDENCE,0511,2202,Hammond Park,X,33.676029999999997,-84.403919999999999
200081435,2020-01-08,2020-01-08,1339,2020-01-08,1456,412,,,2351 SANDSPRING DR SW,Day Watch,20,BURGLARY-RESIDENCE,0511,2202,Sandlewood Estates,P,33.701639999999998,-84.538409999999999
200081462,2020-01-08,2019-12-28,1200,2020-01-08,1200,211,,4225,2323 PIEDMONT RD NE,Unknown,26,BURGLARY-RESIDENCE,0511,2202,Lindbergh/Morosgo,B,33.818249999999999,-84.366950000000003
200081606,2020-01-08,2019-12-11,0800,2020-01-08,1735,504,,201,227 PINE ST NW,Evening Watch,20,BURGLARY-RESIDENCE,0511,2202,Downtown,M,33.767910000000001,-84.394369999999995
200081766,2020-01-08,2020-01-08,1837,2020-01-08,1837,406,,,545 BROWNLEE RD SW,Evening Watch,20,BURGLARY-RESIDENCE,0511,2202,,I,33.74109,-84.497219999999999
200081905,2020-01-08,2020-01-08,2000,2020-01-08,2015,310,,,251 BROMACK DR SE,Evening Watch,20,BURGLARY-RESIDENCE,0511,2202,Browns Mill Park,Z,33.688690000000001,-84.381469999999993
200082142,2020-01-08,2020-01-08,2230,2020-01-08,2243,403,,,1188 CHATHAM AVE SW,Unknown,20,BURGLARY-RESIDENCE,0511,2202,Cascade Avenue/Road,S,33.722839999999998,-84.442819999999998
200080226,2020-01-08,2020-01-08,0253,2020-01-08,0302,211,,,2399 PARKLAND DR NE,Morning Watch,20,AGG ASSAULT,0410,1314,Lindbergh/Morosgo,B,33.819479999999999,-84.364249999999998
200080716,2020-01-08,2020-01-08,0700,2020-01-08,1008,410,,,2328 CAMPBELLTON RD SW,Unknown,20,AGG ASSAULT,0410,1314,Campbellton Road,R,33.704189999999997,-84.463390000000004
200081288,2020-01-08,2020-01-08,1100,2020-01-08,1200,310,,,2294 POLAR ROCK AVE SW,Evening Watch,20,AGG ASSAULT,0410,1314,Polar Rock,Z,33.691839999999999,-84.395780000000002
200081729,2020-01-08,2020-01-08,1800,2020-01-08,1825,312,,,3311 EMPIRE BLVD SW,Evening Watch,6,AGG ASSAULT,0410,1314,Glenrose Heights,Z,33.664450000000002,-84.391859999999994
200082111,2020-01-08,2020-01-08,2219,2020-01-08,2230,409,,18D,3041 LANDRUM DR SW,Morning Watch,20,AGG ASSAULT,0410,1314,Southwest,R,33.706490000000002,-84.487819999999999
200080107,2020-01-08,2020-01-08,0100,2020-01-08,0110,603,,3-O,400 RALPH MCGILL BLVD NE,Morning Watch,26,AGG ASSAULT,0420,1315K,Old Fourth Ward,M,33.76408,-84.374480000000005
200080135,2020-01-08,2020-01-08,0133,2020-01-08,0138,111,,,2595 MARTIN L KING JR DR NW,Morning Watch,23,ROBBERY-PEDESTRIAN,0311,1212,Harland Terrace,I,33.753830000000001,-84.472499999999997
200080462,2020-01-08,2020-01-08,0715,2020-01-08,0730,405,,,3050 MARTIN L KING JR DR SW,Day Watch,18,AUTO THEFT,0710,2404,Harland Terrace,I,33.75177,-84.485699999999994
200080545,2020-01-08,2020-01-08,0800,2020-01-08,0833,304,,,1069 WASHINGTON ST SW,Day Watch,18,AUTO THEFT,0710,2404,Peoplestown,V,33.725720000000003,-84.391270000000006
200080919,2020-01-08,2020-01-07,2000,2020-01-08,1153,506,,,368 ANDREW J HAIRSTON PL NW,Day Watch,13,AUTO THEFT,0710,2404,English Avenue,L,33.764699999999998,-84.414029999999997
200081115,2020-01-08,2020-01-07,2000,2020-01-08,1448,302,,10,566 UNIVERSITY AVE SW,Day Watch,26,AUTO THEFT,0710,2404,Pittsburgh,V,33.722070000000002,-84.406170000000003
200081599,2020-01-08,2020-01-08,1652,2020-01-08,1653,206,,,2980 PIEDMONT RD NE,Evening Watch,99,AUTO THEFT,0710,2404,Garden Hills,B,33.835970000000003,-84.368930000000006
200082039,2020-01-08,2020-01-08,2100,2020-01-08,2124,404,,,1685 RALPH D ABERNATHY BLVD SW,Evening Watch,23,AUTO THEFT,0710,2404,,I,33.748510000000003,-84.442499999999995
200082062,2020-01-08,2020-01-08,2138,2020-01-08,2141,210,,,3639 PEACHTREE RD NE,Evening Watch,23,AUTO THEFT,0710,2404,Ridgedale Park,B,33.853729999999999,-84.357770000000002
200080775,2020-01-08,2020-01-03,1700,2020-01-08,0800,407,,,921 AMBIENT WAY SW,Morning Watch,6,LARCENY-NON VEHICLE,0690,2399,Mays,H,33.74635,-84.502099999999999
200080794,2020-01-08,2020-01-06,1130,2020-01-08,1046,505,,329,878 PEACHTREE ST NE,Day Watch,20,LARCENY-NON VEHICLE,0690,2399,Midtown,E,33.778799999999997,-84.384379999999993
200081026,2020-01-08,2020-01-08,1303,2020-01-08,1515,401,,,1152 GREENWICH ST SW,Evening Watch,26,LARCENY-NON VEHICLE,0690,2399,West End,T,33.743519999999997,-84.425430000000006
200081410,2020-01-08,2020-01-06,0100,2020-01-06,0130,509,,,129 NORTH AVE NE,Evening Watch,,LARCENY-NON VEHICLE,0690,2399,Downtown,M,33.771030000000003,-84.383179999999996
200080488,2020-01-08,2020-01-07,1700,2020-01-08,0750,404,,,645 CASCADE AVE SW,Day Watch,24,LARCENY-NON VEHICLE,0670,2308,Westview,T,33.737830000000002,-84.43553
200080815,2020-01-08,2019-12-16,1300,2019-12-22,1100,304,,,994 HANK AARON DR SE,Day Watch,20,LARCENY-NON VEHICLE,0670,2308,Peoplestown,V,33.72739,-84.38767
200080825,2020-01-08,2020-01-07,1200,2020-01-07,1200,303,,,299 RICHARDSON ST SW @WINDSOR ST PLAZA SH,Day Watch,21,LARCENY-NON VEHICLE,0670,2308,Mechanicsville,V,33.740839999999999,-84.397480000000002
200081199,2020-01-08,2020-01-01,1459,2020-01-04,1200,212,,1369,1925 MONROE DR NE,Evening Watch,26,LARCENY-NON VEHICLE,0670,2308,Piedmont Heights,F,33.80856,-84.375060000000005
200081490,2020-01-08,2019-12-25,1600,2019-12-25,1600,210,,,3400 AROUND LENOX DR NE @AROUND LENOX,Unknown,,LARCENY-NON VEHICLE,0670,2308,Lenox,B,33.845779999999998,-84.364890000000003
200081412,2020-01-08,2020-01-06,1500,2020-01-08,1500,107,,,1690 DETROIT AVE NW,Evening Watch,20,LARCENY-FROM VEHICLE,0650,2304,Grove Park,J,33.765860000000004,-84.445149999999998
200081960,2020-01-08,2020-01-07,2000,2020-01-07,2100,510,,,25 PIEDMONT AVE NE,Evening Watch,21,LARCENY-NON VEHICLE,0620,2302,Downtown,M,33.755220000000001,-84.38203
200011917,2020-01-08,2019-12-29,0045,2019-12-29,0200,112,,,820 DUFFIELD DR NW,Morning Watch,20,LARCENY-FROM VEHICLE,0640,2305,Collier Heights,I,33.768790000000003,-84.482690000000005
200080526,2020-01-08,2020-01-08,0818,2020-01-08,0818,212,,,2325 CHESHIRE BRIDGE RD NE ,Day Watch,12,LARCENY-NON VEHICLE,0630,2303,Lindridge/Martin Manor,F,33.818660000000001,-84.349059999999994
200080731,2020-01-08,2020-01-04,1740,2020-01-04,1940,208,,,3500 PEACHTREE RD NE ,Evening Watch,99,LARCENY-NON VEHICLE,0630,2303,North Buckhead,B,33.853020000000001,-84.362780000000001
200080898,2020-01-08,2020-01-07,1800,2020-01-07,1830,208,,,3440 PEACHTREE RD NE,Evening Watch,8,LARCENY-NON VEHICLE,0630,2303,North Buckhead,B,33.851660000000003,-84.362350000000006
200081536,2020-01-08,2020-01-08,1700,2020-01-08,1710,411,,,2841 GREENBRIAR PKWY SW @GREENBRIAR MALL,Evening Watch,8,LARCENY-NON VEHICLE,0630,2303,Greenbriar,R,33.686770000000003,-84.497730000000004
200081564,2020-01-08,2020-01-08,1715,2020-01-08,1721,208,,,3508 PEACHTREE RD NE,Evening Watch,8,LARCENY-NON VEHICLE,0630,2303,North Buckhead,B,33.852559999999997,-84.36054
200081816,2020-01-08,2020-01-08,1907,2020-01-08,1910,506,,,720 DONALD LEE HOLLOWELL PKWY NW,Evening Watch,7,LARCENY-NON VEHICLE,0630,2303,English Avenue,L,33.772759999999998,-84.410889999999995
200081843,2020-01-08,2020-01-08,1920,2020-01-08,1924,102,,,835 MARTIN L KING JR DR NW,Evening Watch,12,LARCENY-NON VEHICLE,0630,2303,Vine City,L,33.755040000000001,-84.414569999999998
200082168,2020-01-08,2020-01-08,2305,2020-01-08,2309,506,,,720 DONALD LEE HOLLOWELL PKWY NW,Morning Watch,23,LARCENY-NON VEHICLE,0630,2303,English Avenue,L,33.772759999999998,-84.410889999999995
200072368,2020-01-08,2020-01-07,2200,2020-01-08,0016,414,,,3670 CAMP CREEK PKWY SW   ,Morning Watch,18,LARCENY-FROM VEHICLE,0640,2305,Princeton Lakes,P,33.655000000000001,-84.508589999999998
200080040,2020-01-08,2020-01-07,2230,2020-01-07,2340,606,,,727 WYLIE ST SE,Morning Watch,18,LARCENY-FROM VEHICLE,0640,2305,Cabbagetown,N,33.752040000000001,-84.363550000000004
200080065,2020-01-08,2020-01-07,2358,2020-01-08,0010,104,,,1150 WESTVIEW DR SW,Morning Watch,13,LARCENY-FROM VEHICLE,0640,2305,West End,T,33.7468,-84.425399999999996
200080295,2020-01-08,2020-01-07,1730,2020-01-08,0400,613,,1835,1835 PIEDMONT AVE NE,Unknown,18,LARCENY-FROM VEHICLE,0640,2305,Morningside/Lenox Park,F,33.805669999999999,-84.36712
200080360,2020-01-08,2020-01-07,1700,2020-01-08,0500,503,,,53 14TH ST NE,Morning Watch,18,LARCENY-FROM VEHICLE,0640,2305,Midtown,E,33.786340000000003,-84.385909999999996
200080399,2020-01-08,2020-01-08,0000,2020-01-08,0550,503,,,100 10TH ST NW,Morning Watch,18,LARCENY-FROM VEHICLE,0640,2305,Midtown,E,33.780949999999997,-84.390330000000006
200080424,2020-01-08,2020-01-07,1900,2020-01-08,0717,305,,,1312 GRANT ST SE,Day Watch,13,LARCENY-FROM VEHICLE,0640,2305,Chosewood Park,Y,33.71884,-84.376459999999994
200080454,2020-01-08,2020-01-08,0650,2020-01-08,0700,111,,,166 HERMER CIR NW,Day Watch,20,LARCENY-FROM VEHICLE,0640,2305,,I,33.758519999999997,-84.485919999999993
200080471,2020-01-08,2020-01-07,2300,2020-01-08,0740,402,,,902 HALL ST SW,Morning Watch,20,LARCENY-FROM VEHICLE,0640,2305,Oakland City,S,33.730449999999998,-84.425399999999996
200080519,2020-01-08,2020-01-07,1700,2020-01-08,0750,206,,,333 E WESLEY RD NE,Day Watch,20,LARCENY-FROM VEHICLE,0640,2305,Garden Hills,B,33.82835,-84.376760000000004
